City_ID,City,Lat,Lng,Max Temp,Humidity,Cloudiness,Wind Speed,Country,Date
0,port-aux-francais,-49.35,70.2167,5.75,70,14,6.87,TF,1709933106
1,albany,42.6001,-73.9662,12.36,35,75,0.89,US,1709932870
2,blackmans bay,-43.0167,147.3167,16.07,90,83,4.23,AU,1709933108
3,swakopmund,-22.6833,14.5333,18.47,88,47,1.34,NA,1709933108
4,olonkinbyen,70.9221,-8.7187,0.64,94,93,5.8,SJ,1709933109
5,paka,4.6374,103.4368,23.96,94,100,0.0,MY,1709933109
6,leer,53.2316,7.461,5.0,77,0,1.34,DE,1709933110
7,sola,-13.8833,167.55,27.64,82,100,9.28,VU,1709933111
8,puerto natales,-51.7236,-72.4875,10.25,66,100,8.75,CL,1709933111
9,iskateley,67.6803,53.1512,-21.1,100,98,2.68,RU,1709933112
10,huarmey,-10.0681,-78.1522,26.15,71,29,5.34,PE,1709933112
11,qaqortoq,60.7167,-46.0333,-4.3,92,99,2.84,GL,1709933030
12,chongwe,-15.3292,28.682,21.16,90,96,1.94,ZM,1709933113
13,skovorodino,53.9833,123.9167,-23.27,100,28,0.81,RU,1709933114
14,grytviken,-54.2811,-36.5092,6.42,82,63,5.46,GS,1709933114
15,kill devil hills,36.0307,-75.676,9.01,82,100,5.66,US,1709933083
16,chalatenango,14.0333,-88.9333,31.98,22,0,3.61,SV,1709933115
17,fort st. john,56.2499,-120.8529,5.94,56,75,6.17,CA,1709932850
18,adamstown,-25.066,-130.1015,25.54,74,1,4.83,PN,1709933116
19,waitangi,-43.9535,-176.5597,14.9,76,33,3.58,NZ,1709933116
20,kudymkar,59.0173,54.656,-9.34,99,94,1.14,RU,1709933117
21,khovd,48.0056,91.6419,-5.69,57,68,2.07,MN,1709933118
22,vorgashor,67.5833,63.95,-29.04,100,59,2.5,RU,1709933118
23,northam,51.0333,-4.2167,7.36,80,100,8.49,GB,1709933119
24,whitehorse,60.7161,-135.0538,0.43,64,75,9.26,CA,1709932827
25,invercargill,-46.4,168.35,11.68,64,93,5.81,NZ,1709933120
26,christchurch,-43.5333,172.6333,18.56,80,20,4.12,NZ,1709932747
27,gallneukirchen,48.3543,14.4127,5.72,66,1,0.45,AT,1709933121
28,san jose de jachal,-30.2406,-68.7469,34.43,13,0,3.84,AR,1709933122
29,taltal,-25.4,-70.4833,22.45,69,71,3.57,CL,1709933122
30,garachico,28.7781,-17.7646,16.06,59,20,3.09,ES,1709933123
31,ardakan,32.31,54.0175,14.42,38,39,1.43,IR,1709933123
32,longyearbyen,78.2186,15.6401,0.91,80,75,4.12,SJ,1709933124
33,la ronge,55.1001,-105.2842,-2.86,43,20,3.6,CA,1709933124
34,kargasok,59.0556,80.8572,-10.76,91,100,5.88,RU,1709933125
35,lorengau,-2.0226,147.2712,27.39,81,27,0.86,PG,1709933125
36,wailua homesteads,22.0669,-159.378,26.24,62,40,10.8,US,1709933125
37,thompson,55.7435,-97.8558,-2.91,43,75,5.14,CA,1709933126
38,ribnita,47.7664,29.0011,2.05,54,1,1.11,MD,1709933126
39,lebu,-37.6167,-73.65,16.05,69,100,2.14,CL,1709933127
40,edinburgh of the seven seas,-37.0676,-12.3116,17.93,83,6,8.33,SH,1709933127
41,st. john's,47.5649,-52.7093,-0.96,98,100,12.35,CA,1709933128
42,darwin,-12.4611,130.8418,27.16,92,75,5.14,AU,1709932983
43,aasiaat,68.7098,-52.8699,-17.72,94,99,3.76,GL,1709933129
44,polyarnyy,69.1989,33.4478,-3.03,97,100,2.69,RU,1709933129
45,acapulco de juarez,16.8634,-99.8901,28.9,65,40,5.14,MX,1709932925
46,ribeira grande,38.5167,-28.7,14.87,67,40,7.2,PT,1709933130
47,caleta de carquin,-11.0925,-77.6267,25.48,74,64,5.1,PE,1709933131
48,lihue,21.9789,-159.3672,26.58,62,40,10.8,US,1709933046
49,pangoa,-12.1167,-73.0,27.13,75,100,1.16,PE,1709933131
50,vila velha,-20.3297,-40.2925,23.86,97,75,1.54,BR,1709933132
51,saint-philippe,-21.3585,55.7679,23.77,82,55,4.65,RE,1709933132
52,keflavik,64.0049,-22.5624,6.24,81,75,9.26,IS,1709933133
53,knyaze-volkonskoye,48.4642,135.4567,-14.81,100,98,1.09,RU,1709933133
54,palatka,29.6486,-81.6376,25.81,79,99,0.89,US,1709933134
55,spas-demensk,54.4122,34.0226,-4.21,90,100,2.22,RU,1709933135
56,ushuaia,-54.8,-68.3,11.81,71,40,5.14,AR,1709933004
57,georgetown,5.4112,100.3354,27.96,88,20,2.57,MY,1709933136
58,piti village,13.4626,144.6933,26.49,77,0,2.57,GU,1709933136
59,novoazovs'k,47.1139,38.086,2.55,65,6,3.67,UA,1709933137
60,tshabong,-26.05,22.45,25.84,18,0,5.13,BW,1709933137
61,mahibadhoo,3.7833,72.9667,27.71,74,100,3.05,MV,1709933138
62,vilyuchinsk,52.9306,158.4028,-9.85,82,74,5.29,RU,1709933138
63,minzhu,43.7286,127.3447,-16.9,96,10,0.74,CN,1709933139
64,hawaiian paradise park,19.5933,-154.9731,24.93,82,100,5.66,US,1709933139
65,punta arenas,-53.15,-70.9167,9.06,93,75,4.63,CL,1709932980
66,puerto ayora,-0.7393,-90.3518,29.98,88,82,2.24,EC,1709933140
67,el calafate,-50.3408,-72.2768,10.2,60,100,8.4,AR,1709933140
68,los frentones,-26.4077,-61.4137,35.84,38,97,3.99,AR,1709933141
69,fort mcmurray,56.7268,-111.381,1.77,51,100,3.09,CA,1709933141
70,sterling,39.0062,-77.4286,15.76,59,0,3.09,US,1709933069
71,koulikoro,14.0,-7.75,28.73,11,54,2.17,ML,1709933142
72,noshiro,40.2039,140.0242,-0.2,72,99,4.22,JP,1709933143
73,bredasdorp,-34.5322,20.0403,18.81,77,0,1.19,ZA,1709933143
74,hashtrud,37.4779,47.0508,2.28,75,26,5.55,IR,1709933144
75,mandalgovi,45.7625,106.2708,-10.83,75,0,3.44,MN,1709933144
76,bethel,41.3712,-73.414,14.05,39,0,1.54,US,1709933145
77,morro do chapeu,-11.55,-41.1561,21.22,71,13,1.93,BR,1709933145
78,papatowai,-46.5619,169.4708,11.02,58,69,7.53,NZ,1709933146
79,port lincoln,-34.7333,135.8667,24.19,54,3,3.58,AU,1709933146
80,san patricio,28.017,-97.5169,31.97,21,36,6.7,US,1709933147
81,yellowknife,62.456,-114.3525,-6.99,60,75,2.06,CA,1709933147
82,iowa falls,42.5225,-93.2513,6.15,49,100,5.66,US,1709933148
83,pacific grove,36.6177,-121.9166,19.67,64,0,3.6,US,1709933148
84,pama,11.2497,0.7075,33.12,10,8,1.65,BF,1709933149
85,codrington,-38.2667,141.9667,17.99,35,0,4.12,AU,1709933149
86,isafjordur,66.0755,-23.124,2.86,80,40,3.7,IS,1709933150
87,college,64.8569,-147.8028,-11.97,70,75,0.0,US,1709933150
88,hithadhoo,-0.6,73.0833,27.92,75,100,3.33,MV,1709933151
89,tuy hoa,13.0833,109.3,22.12,92,97,1.92,VN,1709933151
90,dongling,41.8144,123.5758,-8.95,40,0,1.44,CN,1709933152
91,badger,64.8,-147.5333,-12.02,78,75,0.0,US,1709933152
92,iqaluit,63.7506,-68.5145,-29.06,75,0,0.0,CA,1709933153
93,baiti,13.745,-14.7482,31.97,19,99,2.96,SN,1709933153
94,arraial do cabo,-22.9661,-42.0278,25.98,89,75,5.14,BR,1709933154
95,hammerfest,70.6634,23.6821,3.25,100,75,5.14,NO,1709933154
96,labytnangi,66.6572,66.4183,-24.36,97,81,2.02,RU,1709933154
97,atar,20.5169,-13.0499,23.9,20,0,4.74,MR,1709933155
98,namibe,-15.1961,12.1522,24.57,72,59,2.58,AO,1709933155
99,kodiak,57.79,-152.4072,1.73,64,0,8.23,US,1709933156
100,constantia,44.1833,28.65,3.38,72,74,0.63,RO,1709932902
101,cole harbour,44.6724,-63.4751,0.71,82,100,8.49,CA,1709933157
102,andergrove,-21.0833,149.1833,25.91,83,95,8.92,AU,1709933157
103,west bay,19.3667,-81.4167,30.04,66,20,6.17,KY,1709933158
104,verkhnevilyuysk,63.4453,120.3167,-16.0,97,100,2.34,RU,1709933158
105,avila,40.5833,-5.0,3.14,92,100,7.28,ES,1709933159
106,gwadar,25.1216,62.3254,22.7,83,17,2.95,PK,1709933159
107,kapuskasing,49.4169,-82.4331,7.05,49,100,1.54,CA,1709932907
108,taro,-8.3862,115.28,23.0,96,100,0.48,ID,1709933160
109,carnarvon,-24.8667,113.6333,24.37,77,0,11.74,AU,1709933160
110,kruisfontein,-34.0033,24.7314,19.38,85,0,1.78,ZA,1709933161
111,damnagar,21.7,71.5167,23.39,23,0,4.76,IN,1709933161
112,fale old settlement,-9.3852,-171.2468,28.69,72,15,2.1,TK,1709933163
113,diu,20.7141,70.9822,23.1,35,4,3.34,IN,1709933164
114,lundazi,-12.2929,33.1782,18.79,89,100,2.13,ZM,1709933166
115,taulaga,-11.0553,-171.0883,28.57,72,45,2.5,AS,1709933167
116,deqen,29.9618,90.7188,-3.99,18,8,2.7,CN,1709933167
117,kamiiso,41.8167,140.65,-6.79,79,98,1.54,JP,1709933168
118,nova xavantina,-14.6667,-52.35,28.57,82,86,0.45,BR,1709933169
119,margate,51.3813,1.3862,8.16,75,94,2.24,GB,1709933170
120,la esperanza,14.8667,-91.5667,24.48,60,0,0.0,GT,1709933170
121,sao jose da coroa grande,-8.8978,-35.1478,27.8,78,75,3.93,BR,1709933171
122,turkmenbasy,40.0222,52.9552,4.43,75,75,2.06,TM,1709933172
123,margaret river,-33.95,115.0667,13.03,67,5,3.98,AU,1709933172
124,sarangani,5.4033,125.4636,27.21,79,79,10.52,PH,1709933173
125,saldanha,-33.0117,17.9442,18.03,86,0,6.66,ZA,1709933174
126,maragogi,-9.0122,-35.2225,27.59,80,77,3.91,BR,1709933174
127,mersing,2.4312,103.8405,24.95,94,20,1.03,MY,1709933175
128,hadibu,12.65,54.0333,25.43,78,57,2.88,YE,1709933175
129,ermenek,36.6404,32.8918,3.11,74,59,1.78,TR,1709933176
130,mindelo,16.8901,-24.9804,21.75,56,40,13.38,CV,1709933177
131,mana,5.6592,-53.7767,28.05,72,79,5.06,GF,1709933177
132,stanley,54.868,-1.6985,4.32,79,75,5.14,GB,1709933178
133,nova vicosa,-17.8919,-39.3719,27.21,73,3,4.75,BR,1709933179
134,alvaraes,-3.2208,-64.8042,30.93,86,100,1.48,BR,1709933179
135,inirida,3.8653,-67.9239,31.93,57,100,0.69,CO,1709933180
136,nuuk,64.1835,-51.7216,-10.66,79,75,6.17,GL,1709933181
137,bilibino,68.0546,166.4372,-25.24,97,89,0.56,RU,1709933182
138,tolanaro,-25.0319,46.9987,26.04,89,40,3.6,MG,1709933182
139,ulsteinvik,62.3432,5.8487,4.86,71,9,2.24,NO,1709933176
140,blenheim,-41.516,173.9528,19.73,60,26,0.45,NZ,1709933183
141,kapustin yar,48.5831,45.7372,-2.57,83,19,3.87,RU,1709933184
142,brisas de zicatela,15.8369,-97.0419,28.29,74,20,4.12,MX,1709933185
143,alofi,-19.0595,-169.9187,28.94,74,75,3.09,NU,1709933185
144,urangan,-25.3,152.9,24.55,83,100,2.68,AU,1709933186
145,viedma,-40.8135,-62.9967,29.72,19,6,9.72,AR,1709933186
146,tralee,52.2704,-9.7026,7.03,80,100,6.99,IE,1709933187
147,st. paul,44.9444,-93.0933,5.16,46,0,5.14,US,1709933070
148,dudhi,24.2167,83.25,16.52,31,0,1.76,IN,1709933188
149,remire-montjoly,4.9167,-52.2667,30.02,70,20,6.69,GF,1709933189
150,belyy yar,53.6039,91.3903,-7.06,79,0,1.0,RU,1709933190
151,nieuw amsterdam,5.8833,-55.0833,31.09,70,40,6.17,SR,1709933190
152,maxixe,-23.8597,35.3472,25.75,92,1,3.32,MZ,1709933191
153,port alfred,-33.5906,26.891,18.99,92,36,1.34,ZA,1709933191
154,noosa heads,-26.3833,153.15,25.62,67,51,9.21,AU,1709933045
155,souk ahras,36.2864,7.9511,9.01,93,99,1.46,DZ,1709933192
156,yemva,62.59,50.8594,-17.6,98,100,2.75,RU,1709933192
157,salalah,17.0151,54.0924,24.87,79,98,2.75,OM,1709933193
158,vel'sk,61.0701,42.0983,-9.85,91,100,4.47,RU,1709933193
159,holualoa,19.6228,-155.9522,25.43,77,40,3.6,US,1709933194
160,pagsangahan,13.2158,122.5431,25.24,76,34,5.89,PH,1709933194
161,peace river,56.2501,-117.286,3.17,75,100,3.09,CA,1709932974
162,severo-yeniseyskiy,60.3725,93.0408,-22.68,100,99,2.18,RU,1709933195
163,botevgrad,42.9,23.7833,4.1,93,52,0.54,BG,1709933196
164,mena,51.5217,32.2157,-0.43,80,15,2.9,UA,1709933197
165,hermanus,-34.4187,19.2345,19.89,84,3,2.0,ZA,1709933197
166,regina,50.4501,-104.6178,-5.54,68,20,3.6,CA,1709932856
167,el granada,37.5027,-122.4694,21.08,53,0,4.12,US,1709933198
168,rakops,-21.0167,24.3333,25.86,59,60,4.31,BW,1709933198
169,kolonia,50.9333,6.95,8.19,59,0,3.6,DE,1709933128
170,isahaya,32.8411,130.0431,3.62,69,21,2.56,JP,1709933200
171,tiksi,71.6872,128.8694,-32.22,100,62,1.08,RU,1709933200
172,okahao,-17.885,15.0667,29.25,37,60,2.7,NA,1709933201
173,susuman,62.7833,148.1667,-33.34,100,92,0.89,RU,1709933201
174,songyuan,45.1171,124.8568,-8.81,48,0,2.83,CN,1709933202
175,phan rang-thap cham,11.5667,108.9833,22.4,84,75,2.76,VN,1709933203
176,talnakh,69.4865,88.3972,-21.74,97,98,2.37,RU,1709933203
177,jijiga,9.35,42.8,22.39,53,67,0.57,ET,1709933204
178,tinogasta,-28.0632,-67.5649,33.41,26,67,4.13,AR,1709933204
179,mejit,10.2753,170.8646,26.56,80,82,10.86,MH,1709933205
180,linton,39.0348,-87.1658,14.94,93,100,5.71,US,1709933206
181,nemuro,43.3236,145.575,-3.15,72,100,6.09,JP,1709933206
182,jamestown,42.097,-79.2353,16.8,48,75,4.63,US,1709933207
183,mitu,1.1983,-70.1733,28.99,76,80,0.38,CO,1709933207
184,west island,-12.1568,96.8225,26.99,94,100,5.14,CC,1709933208
185,olyokminsk,60.3736,120.4264,-7.47,96,100,2.39,RU,1709933208
186,saipan,15.1355,145.701,25.39,83,0,3.09,MP,1709933209
187,muli,2.9167,73.5667,27.86,74,99,2.62,MV,1709933209
188,puerto carreno,6.189,-67.4859,30.99,62,40,4.12,CO,1709933210
189,enewetak,11.3474,162.3373,26.13,82,100,10.1,MH,1709933211
190,taunsa,30.7048,70.6505,15.2,36,55,0.64,PK,1709933211
191,hedaru,-4.5,37.9,23.45,83,94,1.02,TZ,1709933212
192,borkum,53.5809,6.6915,6.97,74,0,10.44,DE,1709933213
193,san isidro de curuguaty,-24.5167,-55.7,30.7,63,76,2.32,PY,1709933214
194,umba,66.6871,34.3429,-6.23,93,92,2.1,RU,1709933215
195,richards bay,-28.783,32.0377,24.51,87,61,5.24,ZA,1709933215
196,weno,7.4515,151.8468,27.52,77,100,8.15,FM,1709933216
197,colonia,50.9333,6.95,8.19,59,0,3.6,DE,1709933217
198,dhidhdhoo,6.8833,73.1,27.47,70,2,0.78,MV,1709933217
199,tazovsky,67.4667,78.7,-32.77,100,42,2.25,RU,1709933218
200,kingston,17.997,-76.7936,29.53,69,20,11.32,JM,1709933067
201,atafu village,-8.5421,-172.5159,28.87,73,8,3.84,TK,1709933182
202,pea ridge,38.414,-82.3199,19.43,65,100,1.79,US,1709933219
203,nabire,-3.3667,135.4833,24.9,92,100,0.89,ID,1709933220
204,bakanas,44.8081,76.2772,3.22,65,25,5.15,KZ,1709933220
205,midvagur,62.0511,-7.1939,5.46,75,100,8.75,FO,1709933221
206,garrni,40.1193,44.7344,0.33,62,100,1.9,AM,1709933221
207,yaren,-0.5472,166.916,28.46,79,52,7.0,NR,1709933222
208,porbandar,21.6422,69.6093,22.86,44,1,3.74,IN,1709933222
209,bandar labuan,5.2888,115.2692,27.2,89,20,2.06,MY,1709933223
210,ayorou,14.7308,0.9174,30.9,9,65,3.94,NE,1709933224
211,altai,46.3722,96.2583,-6.6,51,96,1.51,MN,1709933225
212,magadan,59.5667,150.8,-19.15,78,100,2.54,RU,1709933227
213,al ghayzah,16.2079,52.176,25.33,76,99,4.8,YE,1709933228
214,port mathurin,-19.6833,63.4167,26.43,84,100,5.97,MU,1709933228
215,sosnovo,60.5514,30.2144,-4.43,95,60,1.35,RU,1709933229
216,ilulissat,69.2167,-51.1,-13.99,78,100,7.2,GL,1709933229
217,markaz-e woluswali-ye achin,34.1258,70.7078,10.57,44,0,1.81,AF,1709933230
218,atherton,53.5237,-2.4935,5.97,75,57,4.92,GB,1709933230
219,la passe,45.5549,-0.8967,8.13,85,65,6.54,FR,1709933231
220,chonchi,-42.6128,-73.8092,16.18,66,84,4.26,CL,1709933232
221,hamilton,39.1834,-84.5333,14.03,95,100,3.09,US,1709933232
222,udachny,66.4167,112.4,-14.75,91,100,1.29,RU,1709933233
223,saint joseph,39.7686,-94.8466,3.21,90,100,9.26,US,1709932962
224,yerofey pavlovich,53.9667,121.9667,-20.4,96,24,1.44,RU,1709933234
225,egilsstadir,65.2653,-14.3948,5.95,70,75,1.03,IS,1709933234
226,mount gambier,-37.8333,140.7667,18.74,31,0,3.28,AU,1709933235
227,san antonio de pale,-1.4014,5.6325,28.54,79,11,2.8,GQ,1709933236
228,megion,61.0296,76.1136,-7.99,92,100,5.78,RU,1709933237
229,palu,-0.8917,119.8707,24.45,95,100,1.41,ID,1709933237
230,saint-denis,48.9167,2.3333,11.09,66,0,9.26,FR,1709933238
231,kaoma,-14.7833,24.8,20.11,98,100,1.62,ZM,1709933238
232,toliara,-23.35,43.6667,25.75,85,84,3.46,MG,1709933239
233,altamirano,16.8833,-92.15,31.45,24,0,3.04,MX,1709933239
234,freetown,8.484,-13.2299,27.84,74,44,5.14,SL,1709933240
235,zelenograd,55.9825,37.1814,-2.21,74,40,5.0,RU,1709933240
236,alibag,18.6411,72.8792,27.04,49,0,3.69,IN,1709933241
237,zhanaozen,43.3,52.8,-0.37,62,21,3.58,KZ,1709933242
238,uaua,-9.8414,-39.4817,28.29,54,71,7.29,BR,1709933243
239,tourlaville,49.6383,-1.5664,8.68,87,75,5.14,FR,1709933244
240,sinjai,-5.1241,120.253,24.86,87,100,1.67,ID,1709933244
241,khandud,36.9513,72.318,-17.68,91,43,0.96,AF,1709933245
242,columbus,39.9612,-82.9988,14.7,91,100,4.12,US,1709933162
243,sao joao da barra,-21.6403,-41.0511,27.05,85,11,3.66,BR,1709933246
244,uta,39.2502,-111.751,2.87,40,6,3.91,US,1709933246
245,fortaleza,-3.7227,-38.5247,28.45,83,20,3.09,BR,1709933017
246,tura,25.5198,90.2201,15.98,32,0,1.36,IN,1709933248
247,hirara,24.8,125.2833,15.92,63,100,8.23,JP,1709933248
248,castillos,-34.1667,-53.8333,25.81,77,9,5.27,UY,1709933249
249,nongpoh,25.9,91.8833,14.53,32,0,1.95,IN,1709933249
250,obo,5.3998,26.4869,24.74,44,16,1.24,CF,1709933250
251,djenne,13.9061,-4.5533,32.57,7,4,3.25,ML,1709933250
252,luau,-10.7073,22.2247,19.47,94,96,1.27,AO,1709933251
253,navojoa,27.1,-109.4333,25.35,20,100,4.66,MX,1709933251
254,bamboo flat,11.7,92.7167,22.05,94,79,1.03,IN,1709933252
255,conduaga,8.862,117.4893,23.93,84,100,1.72,PH,1709933253
256,touros,-5.1989,-35.4608,27.52,79,99,4.61,BR,1709933220
257,yallahs,17.8748,-76.5624,29.85,67,1,5.02,JM,1709933254
258,macia,-25.0269,33.0989,25.59,84,0,3.77,MZ,1709933254
259,namanga,-2.5433,36.7905,22.64,67,91,2.45,KE,1709933255
260,santa isabel,-23.3156,-46.2214,24.61,95,98,2.01,BR,1709933255
261,okhotsk,59.3833,143.3,-22.68,98,63,2.61,RU,1709933256
262,ad darb,17.7229,42.2526,27.13,59,100,3.31,SA,1709933256
263,edson,53.5835,-116.4356,7.08,42,0,2.57,CA,1709933257
264,vadso,70.0744,29.7487,2.09,87,75,1.54,NO,1709933258
265,san mariano,7.5,126.0,20.56,94,100,1.36,PH,1709933258
266,tarauaca,-8.1614,-70.7656,30.51,66,73,1.01,BR,1709933063
267,rovaniemi,66.5,25.7167,-1.33,80,100,2.06,FI,1709933259
268,chibougamau,49.9168,-74.3659,3.79,33,0,3.09,CA,1709933259
269,geraldton,-28.7667,114.6,18.23,68,0,9.26,AU,1709933260
270,ballina,-28.8667,153.5667,18.77,68,74,7.12,AU,1709933260
271,myrina,39.8797,25.0742,8.58,76,20,2.06,GR,1709933261
272,lukolela,-1.0605,17.1821,23.11,90,100,1.21,CD,1709933261
273,mata-utu,-13.2816,-176.1745,28.74,74,40,3.27,WF,1709933262
274,abu zabad,12.35,29.25,24.9,8,100,4.65,SD,1709933263
275,klyuchi,52.2667,79.1667,-13.89,96,61,3.03,RU,1709933263
276,dingzhou,38.5131,114.9956,-2.94,44,0,1.9,CN,1709933264
277,barra,-11.0894,-43.1417,28.52,56,10,1.79,BR,1709933265
278,wladyslawowo,54.7909,18.4009,0.82,75,4,2.51,PL,1709933265
279,mount isa,-20.7333,139.5,25.87,69,99,2.57,AU,1709933266
280,erdenet,49.0333,104.0833,-15.21,93,9,1.23,MN,1709933085
281,linqiong,30.4159,103.4609,9.9,83,100,0.19,CN,1709933267
282,vilyuysk,63.7553,121.6247,-20.08,99,100,2.72,RU,1709933267
283,ust-nera,64.5667,143.2,-28.38,100,98,0.86,RU,1709933268
284,robertsport,6.7533,-11.3686,26.79,90,82,4.0,LR,1709933268
285,oranjemund,-28.55,16.4333,17.81,92,0,4.03,NA,1709933269
286,luderitz,-26.6481,15.1594,18.99,80,0,4.92,NA,1709933270
287,ar ruways,24.1103,52.7306,21.69,82,79,3.89,AE,1709933270
288,avarua,-21.2078,-159.775,29.03,79,20,7.2,CK,1709933271
289,mil'kovo,55.6078,37.7956,-1.78,92,19,4.45,RU,1709933272
290,olinda,-8.0089,-34.8553,28.85,79,40,5.14,BR,1709933272
291,enriquillo,17.9,-71.2333,29.82,68,5,4.03,DO,1709933273
292,laguna,38.421,-121.4238,19.08,55,0,3.09,US,1709933274
293,cidreira,-30.1811,-50.2056,22.42,95,100,7.74,BR,1709933274
294,amursk,50.2261,136.8994,-23.09,100,97,0.43,RU,1709933275
295,mokhsogollokh,61.4681,128.9203,-29.32,100,99,0.49,RU,1709933275
296,hasaki,35.7333,140.8333,1.27,81,100,5.55,JP,1709933276
297,nakhon ratchasima,15.0,102.1667,26.7,100,100,2.91,TH,1709933276
298,lillehammer,61.1146,10.4674,-0.34,96,100,0.59,NO,1709933277
299,coahuayana de hidalgo,18.7,-103.6583,30.37,40,63,3.35,MX,1709933277
300,kavaratti,10.5669,72.642,27.84,70,3,4.9,IN,1709933278
301,fiambala,-27.6871,-67.6149,31.91,26,85,5.92,AR,1709933278
302,plyeshchanitsy,54.4222,27.8331,-2.08,89,10,2.13,BY,1709933279
303,narayanpet,16.7333,77.5,26.36,28,4,2.29,IN,1709933279
304,smithers,54.7804,-127.1743,3.18,87,100,2.06,CA,1709933280
305,bogande,12.9714,-0.1436,29.86,9,98,0.59,BF,1709933280
306,dunedin,-45.8742,170.5036,13.22,56,57,4.92,NZ,1709933281
307,sitangkai,4.6628,119.3928,27.52,76,100,7.61,PH,1709933281
308,lompoc,34.6391,-120.4579,22.1,57,20,6.69,US,1709933282
309,lerwick,60.1545,-1.1494,6.0,75,34,7.53,GB,1709933282
310,bengkulu,-3.8004,102.2655,24.53,91,100,3.55,ID,1709933283
311,fumel,44.4986,0.9651,7.55,92,100,2.97,FR,1709933283
312,howrah,22.5892,88.3103,21.0,68,0,0.0,IN,1709933284
313,raduzhny,62.0961,77.475,-8.6,94,100,4.4,RU,1709933285
314,talachyn,54.4097,29.6917,-1.03,87,69,3.54,BY,1709933285
315,aykhal,66.0,111.5,-16.01,99,100,1.4,RU,1709933286
316,grand baie,-20.0182,57.5802,25.26,92,12,0.45,MU,1709933286
317,hawera,-39.5917,174.2833,16.8,69,10,7.5,NZ,1709933297
318,tadine,-21.55,167.8833,24.5,88,100,8.23,NC,1709933297
319,puerto san jose,13.9256,-90.8244,30.76,60,1,5.91,GT,1709933298
320,turtas,58.9417,69.1325,-7.38,94,100,3.89,RU,1709933299
321,nguruka,-5.1092,31.0419,20.13,80,44,1.4,TZ,1709933306
322,monrovia,6.3005,-10.7969,25.87,88,85,3.56,LR,1709933307
323,beyneu,45.3167,55.2,3.06,83,100,5.9,KZ,1709933308
324,kibuye,-2.0597,29.3482,19.47,82,15,1.61,RW,1709933308
325,twon-brass,4.3151,6.2418,28.56,79,91,3.13,NG,1709933309
326,kendari,-3.945,122.4989,26.1,91,100,2.31,ID,1709933310
327,gadzhiyevo,69.2551,33.3362,-3.22,97,100,2.72,RU,1709933310
328,chomutov,50.4605,13.4178,3.99,83,65,4.19,CZ,1709933311
329,tottori,35.5,134.2333,5.04,48,75,8.75,JP,1709933311
330,kirensk,57.7853,108.1119,-5.02,94,100,1.79,RU,1709933312
331,whakatane,-37.9585,176.9854,21.05,62,17,1.54,NZ,1709933040
332,tofol,5.3248,163.0078,28.0,81,100,10.74,FM,1709933313
333,paredon,16.0333,-93.8667,30.09,52,0,4.73,MX,1709933313
334,minas de marcona,-15.2119,-75.1103,21.98,67,89,7.68,PE,1709933314
335,kolonia town,6.964,158.206,29.06,78,100,5.14,FM,1709933314
336,jawf al maqbabah,13.8378,45.8349,22.83,75,44,0.99,YE,1709933315
337,tangalle,6.024,80.7911,23.46,82,98,2.22,LK,1709933316
338,san felipe,10.3399,-68.7425,26.96,80,95,3.2,VE,1709933316
339,port elizabeth,-33.918,25.5701,20.61,83,20,2.57,ZA,1709933317
340,cabo san lucas,22.8909,-109.9124,26.45,43,20,4.12,MX,1709933317
341,tefe,-3.3542,-64.7114,31.06,70,20,2.06,BR,1709933318
342,salinopolis,-0.6136,-47.3561,25.84,92,100,4.95,BR,1709933318
343,happy valley-goose bay,53.3168,-60.3315,-5.83,45,0,2.06,CA,1709933319
344,nanga eboko,4.6833,12.3667,22.85,83,80,1.15,CM,1709933319
345,utrik,11.2278,169.8474,26.44,81,100,11.89,MH,1709933320
346,saint-pierre,-21.3393,55.4781,23.82,78,2,2.57,RE,1709933320
347,bodo,67.28,14.405,1.02,92,0,2.57,NO,1709933321
348,buka,40.8108,69.1986,11.17,46,100,2.33,UZ,1709933321
349,copala,16.65,-98.9833,28.95,54,6,5.04,MX,1709933322
350,bikenibeu village,1.3673,173.1241,29.98,79,40,3.6,KI,1709933322
351,vera cruz,-12.6333,-41.0333,25.76,55,35,2.19,BR,1709933078
352,ancud,-41.8697,-73.8203,13.5,72,87,7.45,CL,1709933323
353,east london,-33.0153,27.9116,21.6,80,45,3.78,ZA,1709933324
354,quiberon,47.4841,-3.1196,9.55,86,99,9.15,FR,1709933324
355,villa gesell,-37.2639,-56.973,23.36,69,78,7.69,AR,1709933325
356,isla vista,34.4133,-119.861,22.22,65,0,3.09,US,1709933325
357,tejen,37.3834,60.5054,13.13,61,100,0.88,TM,1709933326
358,afaahiti,-17.75,-149.2833,28.93,81,50,6.17,PF,1709933326
359,uturoa,-16.7333,-151.4333,28.16,77,83,5.83,PF,1709933327
360,tobelo,1.7284,128.0095,25.54,76,62,1.9,ID,1709933327
361,sumenep,-7.0167,113.8667,26.82,87,100,4.61,ID,1709933327
362,kambove,-10.8764,26.5969,17.55,95,26,0.39,CD,1709933328
363,kapa'a,22.0752,-159.319,26.99,62,40,10.8,US,1709933329
364,ust-tsilma,65.441,52.1498,-25.22,100,95,1.34,RU,1709933329
365,yuma,32.7253,-114.6244,23.4,29,20,5.66,US,1709933330
366,broome,42.2506,-75.833,14.69,42,0,3.6,US,1709933330
367,dudinka,69.4058,86.1778,-19.62,99,100,2.24,RU,1709933331
368,petauke,-14.2426,31.3253,20.39,94,99,0.99,ZM,1709933331
369,pisco,-13.7,-76.2167,27.03,61,0,9.77,PE,1709933111
370,harstad,68.799,16.5293,1.56,95,80,3.58,NO,1709933332
371,los llanos de aridane,28.6585,-17.9182,15.86,81,20,3.09,ES,1709933332
372,tarko-sale,64.9225,77.785,-11.86,96,100,1.85,RU,1709933333
373,kerikeri,-35.2268,173.9474,19.52,71,19,2.21,NZ,1709933334
374,al bayda',32.7627,21.7551,8.16,78,94,3.65,LY,1709933335
375,puerto bolivar,-3.2667,-79.9833,31.0,74,75,3.58,EC,1709933336
376,makinsk,52.6292,70.4169,-14.54,100,99,3.09,KZ,1709933336
377,hafnarfjordur,64.0671,-21.9377,6.21,70,75,3.09,IS,1709933337
378,weiser,44.251,-116.9693,7.7,51,9,1.75,US,1709933338
379,port saint john's,-31.6229,29.5448,21.59,87,17,2.58,ZA,1709933338
380,lesozavodsk,45.4794,133.4244,-19.26,97,32,2.15,RU,1709933339
381,tabalosos,-6.35,-76.6833,19.11,90,89,0.7,PE,1709933340
382,hohhot,40.8106,111.6522,-9.84,73,0,1.0,CN,1709933340
383,crane,31.3974,-102.3501,18.11,31,14,5.78,US,1709933176
384,figuig (centre),32.1089,-1.2286,11.82,45,0,4.01,MA,1709933341
385,marsh harbour,26.5412,-77.0636,25.14,78,69,3.62,BS,1709933341
386,hermansverk,61.1846,6.8502,0.25,68,0,3.09,NO,1709933342
387,hafar al-batin,28.4328,45.9708,15.32,33,0,2.57,SA,1709933342
388,lospalos,-8.5186,127.0025,23.79,96,100,2.3,TL,1709933343
389,suklayin,15.7574,121.5503,22.12,94,86,0.58,PH,1709933343
390,hanko,59.8333,22.95,-2.87,94,100,7.15,FI,1709933344
391,fortuna,40.5982,-124.1573,14.99,74,0,1.79,US,1709933344
392,buenaventura,3.8801,-77.0312,28.26,80,81,1.67,CO,1709933346
393,port blair,11.6667,92.75,22.02,94,81,1.03,IN,1709933117
394,achit,56.7985,57.8994,-8.08,95,100,2.55,RU,1709933349
395,alness,57.696,-4.2551,5.36,77,67,5.81,GB,1709933066
396,bandarbeyla,9.4942,50.8122,26.09,75,0,3.27,SO,1709933350
397,taksimo,56.3444,114.8794,-13.91,92,100,0.84,RU,1709933351
398,riyadh,24.6877,46.7219,18.08,35,0,5.25,SA,1709933351
399,santo domingo de los colorados,-0.25,-79.15,24.87,88,82,1.06,EC,1709933352
400,lagunas,-5.2269,-75.6753,28.24,88,97,0.67,PE,1709933352
401,nar'yan-mar,67.6713,53.087,-21.05,100,97,2.68,RU,1709933353
402,fecamp,49.7579,0.3746,10.49,82,100,5.96,FR,1709933354
403,anadyr,64.75,177.4833,-21.72,77,20,1.0,RU,1709933354
404,opuwo,-18.0607,13.84,25.22,36,37,1.93,NA,1709933355
405,tatishchevo,51.6703,45.5953,-8.79,98,93,2.46,RU,1709933356
406,saudarkrokur,65.7461,-19.6394,-0.98,80,48,3.12,IS,1709933357
407,aral,40.5156,81.2636,5.95,35,0,2.11,CN,1709933358
408,camacupa,-12.0167,17.4833,18.23,93,70,1.56,AO,1709933358
409,draa el mizan,36.5363,3.8334,8.23,84,58,2.56,DZ,1709933359
410,puerto deseado,-47.7503,-65.8938,19.48,22,24,14.81,AR,1709933360
411,sambava,-14.2667,50.1667,25.2,89,43,3.65,MG,1709933360
412,acarau,-2.8856,-40.12,26.6,85,100,5.33,BR,1709933361
413,igarka,67.4667,86.5833,-15.45,95,100,5.09,RU,1709933361
414,greenville,35.6127,-77.3663,17.09,61,75,3.09,US,1709933169
415,itamaraca,-7.7478,-34.8256,29.03,72,70,3.84,BR,1709933362
416,esme,38.3998,28.969,2.79,89,67,5.66,TR,1709933363
417,arkhangel'sk,64.5401,40.5433,-11.94,85,75,2.0,RU,1709933191
418,cabedelo,-6.9811,-34.8339,29.37,72,100,5.02,BR,1709933365
419,birjand,32.8663,59.2211,13.26,38,0,7.2,IR,1709933365
420,lewiston orchards,46.3804,-116.9754,11.51,43,0,6.17,US,1709933366
421,bridgewater,44.3835,-64.5155,1.79,81,100,10.29,CA,1709933366
422,borogontsy,62.6683,131.1683,-26.33,100,100,1.76,RU,1709933367
423,garoowe,8.4054,48.4845,23.09,74,3,4.89,SO,1709933368
424,dryden,49.7833,-92.7503,-1.84,54,0,2.57,CA,1709933368
425,nadvoitsy,63.8667,34.3167,-9.12,97,59,2.32,RU,1709933369
426,xianyang,34.3378,108.7026,1.58,69,100,1.0,CN,1709933370
427,bafq,31.6128,55.4107,16.74,34,92,5.36,IR,1709933370
428,kegen,43.0197,79.2203,-11.71,81,27,3.12,KZ,1709933371
429,howard springs,-12.497,131.047,27.12,97,100,1.72,AU,1709933372
430,okha,53.5739,142.9478,-21.45,100,99,2.38,RU,1709933372
431,glace bay,46.1969,-59.957,-0.12,86,100,10.29,CA,1709933373
432,maintirano,-18.0667,44.0167,26.57,88,100,2.67,MG,1709933373
433,nova sintra,14.8667,-24.7167,19.47,72,9,11.48,CV,1709933374
434,fort bragg,35.139,-79.006,18.44,57,100,4.12,US,1709933374
435,kenai,60.5544,-151.2583,1.05,93,0,2.57,US,1709933375
436,genhe,50.7833,121.5167,-26.67,100,99,0.47,CN,1709933375
437,holstebro,56.3601,8.6161,0.56,72,0,4.66,DK,1709933376
438,payakumbuh,-0.2202,100.6308,21.16,96,100,0.82,ID,1709933376
439,kristiansund,63.1115,7.732,2.36,64,18,3.6,NO,1709933377
440,vila franca do campo,37.7167,-25.4333,14.23,72,84,8.25,PT,1709933378
441,asau,46.4333,26.4,-3.49,92,71,1.04,RO,1709933378
442,akureyri,65.6835,-18.0878,1.96,80,0,3.09,IS,1709933379
443,yemetsk,63.4721,41.7941,-13.48,97,81,2.39,RU,1709933379
444,semirara,12.0697,121.3986,25.9,78,100,11.19,PH,1709933380
445,mandiana,10.6333,-8.6833,33.57,26,71,1.09,GN,1709933380
446,minab,27.1467,57.0801,21.69,75,59,1.48,IR,1709933381
447,tulun,54.5611,100.5792,-6.1,98,100,1.06,RU,1709933381
448,ilhabela,-23.7781,-45.3581,25.09,91,94,5.44,BR,1709933384
449,katsuura,35.1333,140.3,6.45,89,94,6.33,JP,1709933384
450,lubang,13.8584,120.124,25.9,78,82,10.05,PH,1709933385
451,klaksvik,62.2266,-6.589,5.51,74,87,10.34,FO,1709933386
452,letterkenny,54.95,-7.7333,6.94,76,100,6.87,IE,1709933386
453,lockwood,45.8191,-108.4149,10.23,25,20,6.17,US,1709933387
454,new norfolk,-42.7826,147.0587,16.72,94,68,1.43,AU,1709933388
455,kandalaksha,67.162,32.4123,-6.27,96,100,1.25,RU,1709933388
456,dondo,-19.6094,34.7431,25.73,93,94,2.32,MZ,1709933389
457,timbuktu,16.7735,-3.0074,29.12,8,45,4.2,ML,1709933390
458,arendal,58.4615,8.7725,1.89,83,4,5.71,NO,1709933390
459,la'ie,21.6477,-157.9253,25.98,69,96,4.47,US,1709933391
460,boali,4.8005,18.1275,25.38,74,100,3.69,CF,1709933392
461,tutoia,-2.7619,-42.2744,27.28,80,100,5.4,BR,1709933392
462,rajgarh,28.6333,75.3833,17.23,30,0,3.86,IN,1709933393
463,carutapera,-1.195,-46.02,25.13,96,100,3.48,BR,1709933393
464,san ciro de acosta,21.6333,-99.8167,38.97,5,95,3.62,MX,1709933394
465,ji'an,27.1172,114.9793,10.46,76,100,0.79,CN,1709933394
466,riberalta,-10.9833,-66.1,34.11,55,75,0.0,BO,1709933395
467,banganapalle,15.3167,78.2333,27.26,56,34,2.61,IN,1709933395
468,bestobe,52.4994,73.0975,-13.41,96,25,4.21,KZ,1709933396
469,kismayo,-0.3582,42.5454,28.39,79,57,5.43,SO,1709933397
470,aleksandrov gay,50.147,48.5704,-6.75,88,90,3.66,RU,1709933397
471,phrai bueng,14.7483,104.3626,28.36,52,98,3.67,TH,1709933398
472,mariehamn,60.0973,19.9348,-2.88,93,100,1.54,AX,1709933398
473,ha'il,27.5219,41.6907,16.01,29,0,1.03,SA,1709933399
474,sarkand,45.41,79.9186,-0.73,69,85,3.68,KZ,1709933399
475,parintins,-2.6283,-56.7358,27.9,82,100,1.08,BR,1709933400
476,umm kaddadah,13.6017,26.6876,24.04,12,17,4.7,SD,1709933400
477,sarh,9.1429,18.3923,29.99,11,41,0.68,TD,1709933401
478,temnikov,54.6302,43.2148,-3.23,97,99,2.91,RU,1709933401
479,aqadyr,48.2553,72.8483,-6.64,97,85,3.16,KZ,1709933404
480,cedeira,43.6797,-8.0209,7.99,65,100,11.81,ES,1709933408
481,shuya,56.8487,41.3883,-4.88,90,69,4.46,RU,1709933410
482,shush,32.1942,48.2436,15.32,43,0,3.02,IR,1709933410
483,oxelosund,58.6706,17.1015,-0.79,100,75,1.54,SE,1709933411
484,ust'-kut,56.7938,105.7672,-12.67,100,99,1.44,RU,1709933413
485,babadag,44.9,28.7167,3.93,70,100,1.54,RO,1709933414
486,babayurt,43.6002,46.7789,2.51,67,100,2.35,RU,1709933415
487,fort-shevchenko,44.5086,50.263,1.23,64,31,3.46,KZ,1709933416
488,umm ruwaba,12.9061,31.2158,24.46,9,95,4.1,SD,1709933417
489,taroudant,30.4703,-8.877,11.79,74,0,2.14,MA,1709933417
490,minot,48.2325,-101.2963,-1.88,59,0,6.69,US,1709933318
491,kujang-up,39.8672,126.0303,-4.44,45,0,1.82,KP,1709933418
492,labrador city,52.9463,-66.9114,-7.05,49,75,2.06,CA,1709933419
493,ketchikan,55.3422,-131.6461,6.26,81,100,5.14,US,1709933420
494,jinghong,21.991,100.7341,16.8,40,3,1.11,CN,1709933421
495,ghadamis,30.1337,9.5007,18.85,26,0,2.2,LY,1709933422
496,bobo-dioulasso,11.1771,-4.2979,32.25,31,0,1.54,BF,1709933212
497,tayshet,55.9342,98.0044,-7.98,96,95,1.17,RU,1709933424
498,kouango,4.9934,19.9619,24.96,71,100,2.36,CF,1709933425
499,tabas,33.5959,56.9244,16.95,44,100,1.41,IR,1709933426
500,tual,-5.6667,132.75,27.64,86,100,8.46,ID,1709933427
501,ambovombe,-25.1667,46.0833,24.13,90,97,1.87,MG,1709933314
502,vallenar,-28.5708,-70.7581,29.36,28,9,2.97,CL,1709933428
503,kenora,49.8167,-94.4337,-4.46,68,40,2.57,CA,1709933428
504,ulaangom,49.9811,92.0667,-21.12,81,57,1.69,MN,1709933429
505,belmonte,-15.8631,-38.8828,26.58,79,7,3.06,BR,1709933429
506,ishurdi,24.1333,89.0833,18.42,26,0,0.59,BD,1709933430
507,kuqa,41.7278,82.9364,4.57,41,12,2.4,CN,1709933430
508,crockett,31.3182,-95.4566,21.99,78,40,5.14,US,1709933431
509,watsa,3.0372,29.5355,20.79,67,53,1.23,CD,1709933431
510,lycksele,64.5954,18.6735,-2.07,80,100,0.0,SE,1709933432
511,argo,37.6333,22.7333,9.88,79,51,0.56,GR,1709933432
512,chimore,-16.9833,-65.1333,26.88,87,100,0.94,BO,1709933433
513,wenling,28.3669,121.36,5.68,75,69,2.52,CN,1709933433
514,yuzhno-kurilsk,44.0306,145.8556,-3.68,59,67,3.75,RU,1709933434
515,wanning,18.8003,110.3967,22.01,95,100,3.23,CN,1709933434
516,mount pearl,47.5166,-52.7813,-1.42,98,100,12.35,CA,1709933435
517,eastham,41.8301,-69.9739,5.6,77,0,5.81,US,1709933435
518,brookings,44.3114,-96.7984,5.06,49,0,8.23,US,1709933436
519,inari,68.906,27.0288,-1.89,95,100,1.41,FI,1709933437
520,eldorado,-23.7869,-54.2836,26.53,76,41,4.04,BR,1709933438
521,alamogordo,32.8995,-105.9603,12.45,53,20,8.75,US,1709933196
522,palmer,42.1584,-72.3287,12.7,30,40,2.57,US,1709933439
523,vinh long,10.25,105.9667,24.99,72,38,5.23,VN,1709933440
524,baranchinskiy,58.1617,59.6991,-7.38,96,100,2.15,RU,1709933440
525,huilong,31.8111,121.655,3.49,75,16,3.14,CN,1709933441
526,smidovich,48.6,133.8167,-23.97,100,98,0.83,RU,1709933441
527,uglegorsk,49.0833,142.0333,-13.56,91,34,1.88,RU,1709933442
528,coron,11.9986,120.2043,23.47,84,72,1.88,PH,1709933442
529,ibiza,38.9088,1.433,14.56,80,0,4.47,ES,1709933443
530,noumea,-22.2763,166.4572,27.22,99,100,6.6,NC,1709933411
531,dewas,22.9667,76.0667,17.1,30,0,2.45,IN,1709933443
532,haiku-pauwela,20.9219,-156.3051,23.61,84,40,8.75,US,1709933444
533,petropavlovsk-kamchatsky,53.0452,158.6483,-10.67,91,20,7.6,RU,1709933445
534,namtsy,62.7161,129.6658,-29.51,100,100,1.34,RU,1709933445
535,newry,54.1784,-6.3374,7.28,75,96,8.38,GB,1709933446
536,launceston,-41.45,147.1667,18.22,77,100,1.54,AU,1709933446
537,thinadhoo,0.5333,72.9333,27.69,79,92,4.76,MV,1709933447
538,yulinshi,38.2906,109.7494,-0.02,36,0,1.71,CN,1709933447
539,walvis bay,-22.9575,14.5053,18.53,88,45,2.57,NA,1709933448
540,brigantine,39.4101,-74.3646,8.11,71,0,4.63,US,1709933449
541,dalandzadgad,43.5708,104.425,-3.12,29,26,1.41,MN,1709933258
542,banjarmasin,-3.3244,114.591,25.08,98,100,0.92,ID,1709933450
543,portland,45.5234,-122.6762,16.01,44,40,2.24,US,1709933252
544,majene,-3.5403,118.9707,25.99,83,100,2.96,ID,1709933451
545,nanyang,32.9947,112.5328,5.55,53,99,1.66,CN,1709933452
546,morondava,-20.2833,44.2833,27.77,80,100,4.77,MG,1709933452
547,par,50.3539,-4.7109,9.39,87,100,10.79,GB,1709933453
548,bandon,51.7469,-8.7425,7.77,79,100,9.67,IE,1709933454
549,sinabang,2.4803,96.3801,24.67,91,100,3.48,ID,1709933454
550,prince rupert,54.3161,-130.3201,5.83,87,100,13.89,CA,1709933454
551,mangrol,21.1167,70.1167,22.64,38,14,5.06,IN,1709933455
552,zaozersk,69.4005,32.4476,-3.56,97,100,2.18,RU,1709933455
553,oulainen,64.2667,24.8,-8.84,98,80,0.8,FI,1709933456
554,san luis de la loma,17.2706,-100.8939,28.24,56,2,4.71,MX,1709933456
555,east ballina,-28.8667,153.5833,18.78,63,73,6.98,AU,1709933457
556,shasta lake,40.6804,-122.3708,19.64,23,21,1.85,US,1709933457
557,mary,37.0,62.5,11.91,75,100,2.59,TM,1709933457
558,kampot,10.6167,104.1833,26.03,81,72,1.75,KH,1709933458
559,asipovichy,53.2933,28.6422,-1.0,79,1,1.99,BY,1709933458
560,newman,37.3138,-121.0208,17.94,47,0,0.89,US,1709933459
561,aljezur,37.3191,-8.8033,14.02,87,100,8.71,PT,1709933459
562,kadisehri,39.9957,35.7919,5.09,54,100,1.72,TR,1709933460
563,at taj,24.2049,23.2857,20.18,18,3,4.66,LY,1709933460
564,cockburn town,21.4612,-71.1419,25.67,81,0,5.69,TC,1709933461
565,sungai penuh,-2.0833,101.3833,18.39,97,100,0.38,ID,1709933461
566,forster,-32.1667,152.5167,19.65,100,100,0.91,AU,1709933461
567,gamboula,4.1178,15.1393,24.42,75,100,3.09,CF,1709933462
568,ghat,24.9647,10.1728,20.83,17,0,3.51,LY,1709933462
569,alaghsas,17.0187,8.0168,29.32,8,23,5.74,NE,1709933463
570,hilo,19.7297,-155.09,25.05,86,100,5.66,US,1709933463
571,ouani,-12.1322,44.4258,28.01,82,100,2.42,KM,1709933468
572,bathsheba,13.2167,-59.5167,28.34,78,40,5.66,BB,1709933471
573,boa vista,2.8197,-60.6733,34.99,38,75,5.66,BR,1709933472
574,taroa,8.7058,171.2275,26.91,75,100,11.46,MH,1709933472
575,cornwall,45.0181,-74.7281,9.91,46,0,5.66,CA,1709933483
576,itaituba,-4.2761,-55.9836,30.09,74,40,3.6,BR,1709933484
577,chulakkurgan,43.765,69.1814,8.56,58,99,3.81,KZ,1709933484
578,bam,29.106,58.357,17.46,41,98,4.82,IR,1709933485
579,sao vicente,-23.9631,-46.3919,27.1,74,100,3.13,BR,1709933485
580,fasa,28.9383,53.6482,15.58,33,75,2.06,IR,1709933486
581,novospasskoye,53.1468,47.7514,-7.39,97,98,1.9,RU,1709933486
