City_ID,City,Lat,Lng,Max Temp,Humidity,Cloudiness,Wind Speed,Country,Date
0,muli,2.9167,73.5667,27.83,75,88,2.89,MV,1710534826
1,watertown,42.3709,-71.1828,7.22,81,100,6.69,US,1710534583
2,adamstown,-25.066,-130.1015,25.9,84,100,6.18,PN,1710534827
3,ushuaia,-54.8,-68.3,6.79,70,40,9.77,AR,1710534536
4,nadym,65.5333,72.5167,-4.55,96,100,6.73,RU,1710534828
5,grytviken,-54.2811,-36.5092,4.14,90,100,4.04,GS,1710534536
6,avarua,-21.2078,-159.775,28.03,69,20,2.06,CK,1710534252
7,jamestown,42.097,-79.2353,6.77,92,100,3.6,US,1710534324
8,edinburgh of the seven seas,-37.0676,-12.3116,16.91,74,98,4.35,SH,1710534376
9,anadyr,64.75,177.4833,-18.72,84,75,0.0,RU,1710534539
10,ejura,7.3856,-1.3562,30.66,46,5,2.19,GH,1710534830
11,labytnangi,66.6572,66.4183,-8.57,97,100,3.46,RU,1710534745
12,qaqortoq,60.7167,-46.0333,-6.69,84,20,0.97,GL,1710534558
13,port-aux-francais,-49.35,70.2167,5.42,83,12,14.61,TF,1710534530
14,margaret river,-33.95,115.0667,17.94,87,37,1.81,AU,1710534524
15,fort bragg,35.139,-79.006,21.91,68,100,8.75,US,1710534832
16,yeniseysk,58.4497,92.1703,-17.25,99,88,1.79,RU,1710534833
17,enewetak,11.3474,162.3373,26.35,79,100,5.93,MH,1710534833
18,susuman,62.7833,148.1667,-21.68,98,100,1.79,RU,1710534664
19,santa elena de uairen,4.6167,-61.1333,32.48,27,86,3.05,VE,1710534711
20,garoowe,8.4054,48.4845,22.44,76,30,5.45,SO,1710534835
21,freetown,8.484,-13.2299,26.1,85,2,3.03,SL,1710534791
22,puerto ayora,-0.7393,-90.3518,31.98,91,67,2.24,EC,1710534583
23,fort mcmurray,56.7268,-111.381,2.77,60,100,5.66,CA,1710534618
24,waitangi,-43.9535,-176.5597,12.68,83,100,2.68,NZ,1710534836
25,puerto natales,-51.7236,-72.4875,8.25,61,75,8.75,CL,1710534493
26,san luis de la loma,17.2706,-100.8939,29.41,58,35,5.18,MX,1710534749
27,lunavada,23.1333,73.6167,24.17,25,1,2.27,IN,1710534546
28,maracas,-13.4411,-40.4308,21.98,84,74,2.76,BR,1710534838
29,invercargill,-46.4,168.35,8.34,89,99,4.47,NZ,1710534555
30,ust-nera,64.5667,143.2,-21.62,99,100,2.41,RU,1710534594
31,zaragoza,41.6561,-0.8773,18.34,61,20,2.57,ES,1710534558
32,chimbote,-9.0853,-78.5783,24.04,75,86,4.19,PE,1710534640
33,bethel,41.3712,-73.414,18.17,59,40,5.14,US,1710534427
34,papatowai,-46.5619,169.4708,8.63,86,96,5.84,NZ,1710534531
35,tyukhtet,56.5389,89.3011,-11.35,95,94,3.0,RU,1710534840
36,strelka,58.0728,93.0344,-11.5,96,98,2.35,RU,1710534841
37,kodiak,57.79,-152.4072,-1.27,93,100,4.12,US,1710534600
38,yellowknife,62.456,-114.3525,-13.66,64,75,3.6,CA,1710534842
39,st. john's,47.5649,-52.7093,1.75,81,100,2.06,CA,1710534842
40,horta,38.5333,-28.6333,16.8,79,40,9.77,PT,1710534714
41,keelung,25.1283,121.7419,17.94,93,11,0.81,TW,1710534687
42,nuku'alofa,-21.1333,-175.2,26.19,94,75,3.09,TO,1710534843
43,myrina,39.8797,25.0742,7.58,76,0,0.0,GR,1710534844
44,datca,36.7378,27.6842,14.54,69,1,4.96,TR,1710534844
45,along,28.1667,94.7667,14.97,81,68,0.81,IN,1710534845
46,nizhneudinsk,54.9076,99.0276,-10.35,95,100,0.85,RU,1710534845
47,lazaro cardenas,17.9583,-102.2,28.42,59,30,5.83,MX,1710534846
48,atafu village,-8.5421,-172.5159,29.44,74,15,5.16,TK,1710534725
49,takoradi,4.8845,-1.7554,27.79,80,22,2.18,GH,1710534802
50,mossel bay,-34.1831,22.146,19.96,84,25,3.77,ZA,1710534847
51,nemuro,43.3236,145.575,-2.42,62,30,7.03,JP,1710534647
52,vilyuchinsk,52.9306,158.4028,-0.85,81,100,3.95,RU,1710534848
53,fale old settlement,-9.3852,-171.2468,29.26,76,9,5.46,TK,1710534606
54,egilsstadir,65.2653,-14.3948,-3.05,100,100,2.06,IS,1710534849
55,simpang,-1.2667,104.0833,23.63,94,96,0.93,ID,1710534850
56,oyama,36.3,139.8,13.66,40,0,3.81,JP,1710534850
57,west island,-12.1568,96.8225,26.99,69,1,3.6,CC,1710534850
58,bani walid,31.7566,13.9942,13.99,65,29,3.54,LY,1710534851
59,midvagur,62.0511,-7.1939,1.46,60,75,3.09,FO,1710534851
60,albany,42.6001,-73.9662,8.94,77,100,1.89,US,1710534557
61,longyearbyen,78.2186,15.6401,-23.09,59,75,2.57,SJ,1710534575
62,ancud,-41.8697,-73.8203,13.76,84,83,5.86,CL,1710534652
63,bonthe,7.5264,-12.505,26.78,86,33,1.94,SL,1710534853
64,pyapon,16.2833,95.6833,23.9,73,2,3.02,MM,1710534854
65,mirny,62.5353,113.9611,-20.43,83,98,1.79,RU,1710534854
66,trairi,-3.2778,-39.2689,23.82,97,100,3.8,BR,1710534854
67,carnarvon,-24.8667,113.6333,29.79,60,99,4.27,AU,1710534652
68,talnakh,69.4865,88.3972,-19.89,94,99,5.75,RU,1710534800
69,sur,22.5667,59.5289,23.65,51,72,1.17,OM,1710534726
70,hawaiian paradise park,19.5933,-154.9731,22.16,98,100,3.6,US,1710534568
71,fairfield,41.2668,-73.3162,17.47,54,40,5.14,US,1710534831
72,wailua homesteads,22.0669,-159.378,23.24,63,0,6.69,US,1710534857
73,georgetown,5.4112,100.3354,27.96,83,20,2.24,MY,1710534780
74,luanda,-8.8368,13.2343,28.0,83,40,1.54,AO,1710534764
75,palangkaraya,-2.2,113.8333,23.64,93,78,0.49,ID,1710534858
76,blackmans bay,-43.0167,147.3167,7.51,93,61,0.45,AU,1710534858
77,lihue,21.9789,-159.3672,23.58,63,0,6.69,US,1710534700
78,blackwater,-23.5833,148.8833,22.21,76,35,3.4,AU,1710534859
79,stanley,54.868,-1.6985,5.71,89,75,3.6,GB,1710534582
80,bel ombre,-4.6167,55.4167,27.91,83,40,2.57,SC,1710534860
81,tolanaro,-25.0319,46.9987,26.04,89,20,3.09,MG,1710534861
82,gadzhiyevo,69.2551,33.3362,-5.5,92,100,2.32,RU,1710534862
83,iskateley,67.6803,53.1512,-2.77,91,100,10.28,RU,1710534597
84,san patricio,28.017,-97.5169,28.98,66,63,5.95,US,1710534707
85,udachny,66.4167,112.4,-27.61,100,100,1.69,RU,1710534578
86,kailua-kona,19.6406,-155.9956,26.82,77,75,3.09,US,1710534863
87,ribeira grande,38.5167,-28.7,17.22,72,40,9.77,PT,1710534864
88,punta arenas,-53.15,-70.9167,9.01,46,40,12.86,CL,1710534859
89,port mathurin,-19.6833,63.4167,26.24,69,73,8.63,MU,1710534865
90,holualoa,19.6228,-155.9522,24.75,77,75,3.09,US,1710534865
91,port augusta,-32.5,137.7667,23.49,59,61,3.35,AU,1710534866
92,robertson,36.5167,-86.8667,20.99,96,100,5.66,US,1710534659
93,tura,25.5198,90.2201,20.3,33,0,1.26,IN,1710534867
94,olonkinbyen,70.9221,-8.7187,-12.85,75,100,8.91,SJ,1710534867
95,palmer,42.1584,-72.3287,11.07,72,100,6.69,US,1710534641
96,saudarkrokur,65.7461,-19.6394,-0.42,90,100,1.78,IS,1710534868
97,filadelfia,39.9523,-75.1638,21.3,60,100,7.2,US,1710534792
98,klyuchi,52.2667,79.1667,-10.87,94,22,3.89,RU,1710534624
99,iqaluit,63.7506,-68.5145,-11.15,72,75,2.57,CA,1710534613
100,bredasdorp,-34.5322,20.0403,18.9,70,13,5.79,ZA,1710534870
101,woolgoolga,-30.1106,153.2007,19.47,65,98,5.77,AU,1710534870
102,vorgashor,67.5833,63.95,-3.58,95,100,6.76,RU,1710534366
103,huayin,34.5675,110.0921,13.57,72,73,2.46,CN,1710534871
104,el cuervo,36.853,-6.0379,17.13,88,0,0.0,ES,1710534871
105,cidreira,-30.1811,-50.2056,24.7,83,100,2.6,BR,1710534872
106,hermanus,-34.4187,19.2345,19.89,76,69,6.46,ZA,1710534872
107,gobabis,-22.45,18.9667,27.38,27,75,3.7,NA,1710534873
108,sitka,57.0531,-135.33,8.94,81,100,3.09,US,1710534873
109,mujiayingzi,42.1167,118.7833,5.34,54,100,4.04,CN,1710534874
110,novyy turtkul',41.55,61.0167,2.95,38,8,7.19,UZ,1710534874
111,hamilton,39.1834,-84.5333,11.44,82,100,5.14,US,1710534007
112,barrouallie,13.2333,-61.2667,26.79,69,40,5.14,VC,1710534875
113,ilulissat,69.2167,-51.1,-15.99,85,20,0.51,GL,1710534876
114,owo,7.1962,5.5868,27.92,62,82,2.36,NG,1710534876
115,chonchi,-42.6128,-73.8092,16.18,69,56,3.95,CL,1710534629
116,carutapera,-1.195,-46.02,25.46,92,100,3.25,BR,1710534877
117,vernon,50.2581,-119.2691,14.86,45,86,1.03,CA,1710534724
118,khandud,36.9513,72.318,-14.13,44,86,0.65,AF,1710534878
119,lukolela,-1.0605,17.1821,24.5,75,54,0.95,CD,1710534878
120,bilibino,68.0546,166.4372,-16.16,87,100,1.67,RU,1710534879
121,orbetello,42.4408,11.2196,12.01,87,70,2.57,IT,1710534879
122,puerto armuelles,8.2833,-82.8667,32.83,56,31,3.58,PA,1710534673
123,nguigmi,14.2495,13.1092,29.71,19,22,1.83,NE,1710534880
124,swan hill,-35.3378,143.5544,18.95,71,38,6.63,AU,1710534671
125,knyaze-volkonskoye,48.4642,135.4567,-4.81,88,6,4.9,RU,1710534881
126,broome,42.2506,-75.833,7.52,90,100,4.12,US,1710534881
127,kitui,-1.367,38.0106,21.85,59,71,2.16,KE,1710534882
128,levuka,50.1834,-105.4011,6.85,70,75,12.35,CA,1710534882
129,lata,40.1629,-8.3327,16.07,96,31,1.09,PT,1710534607
130,kansanshi,-12.0951,26.4273,16.6,97,75,0.65,ZM,1710534883
131,gorontalo,0.5412,123.0595,23.72,94,100,1.67,ID,1710534883
132,umba,66.6871,34.3429,-3.42,97,100,1.94,RU,1710534799
133,utrik,11.2278,169.8474,26.51,77,96,7.57,MH,1710534884
134,cabo san lucas,22.8909,-109.9124,27.01,54,0,8.75,MX,1710534736
135,ciudad sabinas hidalgo,26.5,-100.1667,35.09,30,21,6.43,MX,1710534723
136,chos malal,-37.3781,-70.2709,27.56,4,12,8.82,AR,1710534885
137,afaahiti,-17.75,-149.2833,30.93,75,100,2.55,PF,1710534886
138,newman,37.3138,-121.0208,21.12,41,0,2.36,US,1710534646
139,noumea,-22.2763,166.4572,26.67,99,87,4.02,NC,1710534290
140,whitehorse,60.7161,-135.0538,-1.22,85,100,1.03,CA,1710534887
141,nema,57.5067,50.5011,0.14,93,82,6.08,RU,1710534699
142,port alfred,-33.5906,26.891,23.8,58,30,2.85,ZA,1710534888
143,nova sintra,14.8667,-24.7167,20.66,77,0,7.54,CV,1710534650
144,la passe,45.5549,-0.8967,14.13,80,92,5.23,FR,1710534888
145,kapa'a,22.0752,-159.319,23.99,63,0,6.69,US,1710534889
146,tahlequah,35.9154,-94.97,17.6,55,0,3.6,US,1710534889
147,yegorlykskaya,46.5656,40.6562,4.66,79,100,2.85,RU,1710534890
148,tiksi,71.6872,128.8694,-31.12,96,41,1.65,RU,1710534890
149,qui nhon,13.7667,109.2333,22.46,87,54,1.69,VN,1710534890
150,salalah,17.0151,54.0924,27.05,74,0,1.54,OM,1710534891
151,alaghsas,17.0187,8.0168,27.68,8,0,4.47,NE,1710534891
152,pilar,-9.5972,-35.9567,27.96,63,71,4.5,BR,1710534386
153,isafjordur,66.0755,-23.124,-2.27,95,100,2.81,IS,1710534892
154,cernavoda,44.3667,28.0167,6.69,81,100,2.5,RO,1710534892
155,yallahs,17.8748,-76.5624,30.97,69,26,6.36,JM,1710534893
156,ghardaia,32.4909,3.6735,20.64,19,0,2.06,DZ,1710534893
157,labrador city,52.9463,-66.9114,-3.05,74,100,4.12,CA,1710534611
158,puerto baquerizo moreno,-0.9,-89.6,26.55,94,100,2.57,EC,1710534740
159,hecun,36.5333,114.1111,12.58,46,93,2.13,CN,1710534894
160,bulungu,-4.55,18.6,24.9,77,100,0.7,CD,1710534895
161,mondlo,-27.983,30.7177,14.52,97,46,1.93,ZA,1710534895
162,xam nua,20.4197,104.0439,17.19,49,0,1.18,LA,1710534896
163,matoury,4.8483,-52.3317,28.98,79,75,5.14,GF,1710534896
164,obudu,6.6674,9.1716,30.28,53,9,1.88,NG,1710534897
165,mora,11.0461,14.1401,31.77,9,67,1.06,CM,1710534897
166,mount gambier,-37.8333,140.7667,14.6,75,25,2.78,AU,1710534656
167,pudozh,61.8099,36.5345,0.53,99,100,4.92,RU,1710534799
168,tazovsky,67.4667,78.7,-11.89,93,100,8.82,RU,1710534759
169,guiuan,11.0333,125.7247,26.41,82,66,8.18,PH,1710534899
170,makhambet,47.6667,51.5833,2.83,60,91,7.95,KZ,1710534899
171,sinabang,2.4803,96.3801,26.97,80,92,2.18,ID,1710534755
172,madinat ash shamal,26.1293,51.2009,21.99,70,87,1.78,QA,1710534900
173,sandnessjoen,66.0217,12.6316,1.06,60,75,3.6,NO,1710534900
174,nouadhibou,20.931,-17.0347,19.41,77,0,8.87,MR,1710534624
175,bandarbeyla,9.4942,50.8122,26.13,74,40,3.65,SO,1710534663
176,kunigal,13.0222,77.0267,26.85,51,93,3.73,IN,1710534902
177,nar'yan-mar,67.6713,53.087,-2.72,91,100,10.28,RU,1710534902
178,port elizabeth,-33.918,25.5701,22.28,75,0,9.26,ZA,1710534614
179,kingston,17.997,-76.7936,30.65,62,20,9.26,JM,1710534807
180,kuanda,56.3161,116.0806,-18.69,97,98,0.49,RU,1710534904
181,mount isa,-20.7333,139.5,21.87,78,6,0.0,AU,1710534427
182,lebu,-37.6167,-73.65,15.86,65,0,5.04,CL,1710534689
183,cockburn town,21.4612,-71.1419,24.96,76,100,9.05,TC,1710534905
184,mcfarland,35.678,-119.2293,21.85,31,0,2.06,US,1710534905
185,le puy-en-velay,45.0437,3.8852,7.11,95,9,1.68,FR,1710534906
186,cox's bazar,21.4532,91.9798,21.33,93,10,2.61,BD,1710534906
187,altay,47.8667,88.1167,-14.43,65,32,3.41,CN,1710534907
188,zouerate,22.7187,-12.4521,27.44,11,0,3.81,MR,1710534907
189,katsuren-haebaru,26.3369,127.8719,21.43,72,20,3.09,JP,1710534907
190,san rafael del yuma,18.4299,-68.6739,29.11,67,89,7.07,DO,1710534908
191,kone,-21.0595,164.8658,25.72,91,100,1.83,NC,1710534908
192,al ghayzah,16.2079,52.176,25.22,74,32,3.13,YE,1710534909
193,turkmenbasy,40.0222,52.9552,10.43,37,75,1.03,TM,1710534909
194,dakhla,23.6848,-15.958,18.01,88,0,7.2,EH,1710534910
195,portsmouth,50.799,-1.0913,11.06,94,96,5.22,GB,1710534806
196,port lincoln,-34.7333,135.8667,17.43,90,0,2.78,AU,1710534910
197,eyl,7.9803,49.8164,26.05,72,56,4.06,SO,1710534911
198,kikwit,-5.041,18.8162,24.69,80,99,0.39,CD,1710534912
199,walla walla,46.0646,-118.343,14.47,53,0,1.54,US,1710534686
200,upata,8.0086,-62.3989,35.17,30,82,3.96,VE,1710534912
201,rosario do sul,-30.2583,-54.9142,23.82,94,100,3.16,BR,1710534913
202,axim,4.8699,-2.2405,27.53,84,38,1.1,GH,1710534913
203,inverloch,-38.6333,145.7167,14.47,84,0,3.89,AU,1710534914
204,sudogda,55.9539,40.8629,-0.71,97,100,3.72,RU,1710534914
205,port saint john's,-31.6229,29.5448,21.42,84,55,4.81,ZA,1710534915
206,sao gabriel da cachoeira,-0.1303,-67.0892,29.97,71,99,1.54,BR,1710534915
207,saipan,15.1355,145.701,26.39,100,20,6.17,MP,1710534915
208,tobias barreto,-11.1839,-37.9983,28.14,58,63,6.39,BR,1710534916
209,abalak,58.1286,68.5944,-2.58,88,100,5.63,RU,1710534916
210,belvedere,33.531,-81.9448,20.9,84,100,3.09,US,1710534917
211,trenggalek,-8.05,111.7167,24.06,93,100,1.8,ID,1710534718
212,ruokolahti,61.2833,28.8333,4.47,95,100,5.56,FI,1710534729
213,huilong,31.8111,121.655,10.56,97,100,4.97,CN,1710534918
214,eureka,40.8021,-124.1637,23.44,30,0,2.82,US,1710534918
215,flying fish cove,-10.4217,105.6791,24.82,88,75,3.09,CX,1710534919
216,broken hill,-31.95,141.4333,23.12,51,99,8.15,AU,1710534660
217,thompson,55.7435,-97.8558,-1.91,86,100,6.69,CA,1710534782
218,juneau,58.3019,-134.4197,5.06,97,100,3.09,US,1710534806
219,remire-montjoly,4.9167,-52.2667,30.02,74,75,7.2,GF,1710534702
220,laojunmiao,39.8333,97.7333,-2.23,39,100,0.51,CN,1710534921
221,haiku-pauwela,20.9219,-156.3051,21.2,94,100,5.14,US,1710534882
222,uray,60.1247,64.7758,-1.18,90,100,5.81,RU,1710534745
223,aguazul,5.1728,-72.5471,35.69,36,84,2.69,CO,1710534923
224,malango,-2.9627,119.9001,20.06,92,100,1.23,ID,1710534632
225,palikir - national government center,6.9248,158.1611,27.41,83,100,5.66,FM,1710534924
226,gavarr,40.354,45.1239,2.25,77,92,1.57,AM,1710534924
227,trebon,49.0036,14.7707,11.88,76,100,2.1,CZ,1710534925
228,rabo de peixe,37.8,-25.5833,17.77,99,20,7.72,PT,1710534679
229,kariba,-16.5167,28.8,22.57,85,98,2.56,ZW,1710534925
230,keflavik,64.0049,-22.5624,3.24,100,75,3.6,IS,1710534926
231,arno,60.1167,18.6333,3.77,95,100,5.13,SE,1710534926
232,indramayu,-6.3264,108.32,26.21,82,85,5.65,ID,1710534643
233,ashland,40.8167,-82.2665,8.92,91,70,5.51,US,1710534908
234,walvis bay,-22.9575,14.5053,16.72,94,0,4.12,NA,1710534928
235,altpinar,39.2042,32.7478,5.15,77,30,2.33,TR,1710534928
236,conde,-7.2597,-34.9075,28.7,79,20,4.63,BR,1710534929
237,touros,-5.1989,-35.4608,27.92,81,99,4.31,BR,1710534929
238,al bayda',32.7627,21.7551,7.7,86,50,2.39,LY,1710534929
239,northam,51.0333,-4.2167,9.03,94,70,3.4,GB,1710534695
240,buala,-8.145,159.5921,26.95,84,100,1.52,SB,1710534930
241,siwa oasis,29.2041,25.5195,19.79,36,100,2.75,EG,1710534931
242,warmbaths,-24.8833,28.2833,21.66,71,10,4.95,ZA,1710534931
243,zhukovka,53.534,33.728,1.58,99,94,2.75,RU,1710534931
244,bocas del toro,9.3333,-82.25,28.36,73,18,4.01,PA,1710534932
245,huarmey,-10.0681,-78.1522,24.65,76,48,4.61,PE,1710534662
246,baruun-urt,46.6806,113.2792,-10.05,95,100,4.54,MN,1710534932
247,melekeok village,7.4957,134.6367,24.31,100,100,5.14,PW,1710534933
248,duyun,26.2667,107.5167,12.5,99,100,1.12,CN,1710534933
249,saldanha,-33.0117,17.9442,17.03,87,22,2.19,ZA,1710534934
250,rawai,7.7797,98.3253,25.06,77,72,7.0,TH,1710534934
251,praia da vitoria,38.7333,-27.0667,17.14,72,20,8.34,PT,1710534633
252,cam ranh,11.9214,109.1591,23.98,88,20,2.06,VN,1710534935
253,olyokminsk,60.3736,120.4264,-24.1,100,92,1.11,RU,1710534935
254,novofedorivka,46.1713,32.3178,7.41,85,100,2.71,UA,1710534936
255,raahe,64.6833,24.4833,0.05,98,100,4.64,FI,1710534936
256,saint-joseph,-21.3667,55.6167,24.21,79,42,4.39,RE,1710534937
257,mejit,10.2753,170.8646,26.4,75,100,8.4,MH,1710534653
258,taunggyi,20.7833,97.0333,15.07,57,0,0.26,MM,1710534902
259,scottburgh,-30.2867,30.7532,21.71,87,31,5.57,ZA,1710534938
260,wewak,-3.5534,143.6268,25.78,88,100,2.12,PG,1710534938
261,kukshi,22.2,74.75,24.27,23,2,1.85,IN,1710534892
262,dalandzadgad,43.5708,104.425,-1.59,25,31,9.37,MN,1710534939
263,tocopilla,-22.092,-70.1979,21.68,74,23,2.08,CL,1710534611
264,aiquile,-18.2041,-65.1807,25.14,51,83,6.49,BO,1710534940
265,flin flon,54.7682,-101.865,2.91,81,100,8.75,CA,1710534940
266,iquitos,-3.7481,-73.2472,25.02,88,75,0.0,PE,1710534856
267,les avirons,-21.2418,55.3394,23.05,78,20,2.06,RE,1710534941
268,college,64.8569,-147.8028,-12.66,66,75,0.0,US,1710534850
269,karratha,-20.7377,116.8463,29.03,74,6,5.31,AU,1710534915
270,nieuw nickerie,5.95,-56.9833,27.04,82,44,5.52,SR,1710534942
271,hassi messaoud,31.6804,6.0729,21.92,20,0,1.03,DZ,1710534943
272,koryazhma,61.3143,47.1691,-0.05,99,100,4.48,RU,1710534944
273,santa cruz,-17.8,-63.1667,32.7,62,40,8.23,BO,1710534447
274,la'ie,21.6477,-157.9253,23.98,77,67,0.89,US,1710534944
275,ulsteinvik,62.3432,5.8487,5.42,82,100,8.94,NO,1710534945
276,bouznika,33.7894,-7.1597,16.22,100,24,3.6,MA,1710534752
277,el calafate,-50.3408,-72.2768,6.64,72,88,4.59,AR,1710534946
278,ta`u,-14.2336,-169.5144,28.43,78,96,3.17,AS,1710534946
279,turochak,52.2576,87.1224,-10.59,99,100,0.82,RU,1710534946
280,fenoarivo be,-18.4333,46.5667,20.21,88,55,1.72,MG,1710534947
281,pangoa,-12.1167,-73.0,29.68,63,78,1.74,PE,1710534947
282,mar del plata,-38.0023,-57.5575,26.01,62,0,6.26,AR,1710534677
283,necochea,-38.5473,-58.7368,25.38,35,0,2.53,AR,1710534760
284,carlsbad,33.1581,-117.3506,19.11,65,40,6.17,US,1710534949
285,lincoln city,44.9582,-124.0179,21.05,47,6,2.68,US,1710534743
286,kismayo,-0.3582,42.5454,27.9,67,7,5.59,SO,1710534949
287,igarka,67.4667,86.5833,-17.24,96,100,6.53,RU,1710534950
288,kapuskasing,49.4169,-82.4331,3.05,52,40,2.06,CA,1710534950
289,nabire,-3.3667,135.4833,24.88,91,99,1.11,ID,1710534951
290,howard springs,-12.497,131.047,27.95,92,99,6.21,AU,1710534952
291,temiskaming shores,47.4938,-79.7153,2.89,59,6,2.34,CA,1710534952
292,laguna,38.421,-121.4238,24.62,26,0,9.77,US,1710534952
293,kapit,2.0167,112.9333,22.95,100,100,0.07,MY,1710534953
294,burela de cabo,43.65,-7.4,13.98,92,50,2.07,ES,1710534953
295,miri,4.4148,114.0089,26.08,94,40,1.03,MY,1710534954
296,acapulco de juarez,16.8634,-99.8901,28.9,61,0,5.14,MX,1710534887
297,manokwari,-0.8667,134.0833,26.04,79,100,2.83,ID,1710534954
298,alice springs,-23.7,133.8833,19.75,42,0,3.09,AU,1710534761
299,priozersk,61.0393,30.1291,5.61,88,100,5.29,RU,1710534799
300,muisne,0.6,-80.0333,27.57,77,69,3.58,EC,1710534956
301,la baneza,42.3003,-5.8977,8.89,81,20,1.37,ES,1710534694
302,murakami,38.2333,139.4833,7.94,70,65,4.49,JP,1710534956
303,livingstone,-17.8419,25.8543,22.96,66,100,1.18,ZM,1710534957
304,lompoc,34.6391,-120.4579,22.1,28,0,5.66,US,1710534850
305,amungan,15.3652,119.9582,25.12,73,100,2.06,PH,1710534957
306,batticaloa,7.7102,81.6924,25.18,85,8,3.31,LK,1710534958
307,kununurra,-15.7667,128.7333,25.99,94,100,0.0,AU,1710534958
308,sierra grande,-41.606,-65.3557,22.57,22,0,6.9,AR,1710534959
309,sawakin,19.1059,37.3321,24.94,68,87,6.2,SD,1710534959
310,selfoss,63.9331,-20.9971,1.69,98,100,4.67,IS,1710534959
311,happy valley-goose bay,53.3168,-60.3315,1.17,75,100,4.12,CA,1710534960
312,shakawe,-18.3667,21.85,20.23,90,87,2.03,BW,1710534960
313,kolonia,50.9333,6.95,11.6,86,40,3.6,DE,1710534961
314,sao vicente,-23.9631,-46.3919,38.1,79,20,2.24,BR,1710534961
315,olpad,21.3333,72.75,21.99,67,0,2.12,IN,1710534962
316,east london,-33.0153,27.9116,22.2,72,86,4.46,ZA,1710534684
317,usinsk,65.9939,57.5281,-2.74,87,98,8.94,RU,1710534962
318,constantia,44.1833,28.65,6.5,81,100,2.54,RO,1710534963
319,zahedan,29.4963,60.8629,9.95,43,0,3.09,IR,1710534963
320,kayangel,8.0823,134.7173,27.48,76,93,9.27,PW,1710534668
321,heihe,50.2441,127.4902,-9.68,89,32,2.03,CN,1710534737
322,lorengau,-2.0226,147.2712,27.57,77,100,3.05,PG,1710534965
323,lerwick,60.1545,-1.1494,4.0,68,77,7.17,GB,1710534965
324,rio grande,-32.035,-52.0986,26.06,82,100,3.97,BR,1710534731
325,villa gesell,-37.2639,-56.973,22.51,60,0,6.81,AR,1710534902
326,papao,-17.75,-149.55,31.82,70,97,1.52,PF,1710534966
327,uturoa,-16.7333,-151.4333,28.52,66,97,5.14,PF,1710534967
328,namibe,-15.1961,12.1522,26.03,86,87,2.98,AO,1710534967
329,castillos,-34.1667,-53.8333,20.55,98,100,2.47,UY,1710534967
330,shahrak,34.1074,64.3052,-1.35,67,99,1.91,AF,1710534968
331,margate,51.3813,1.3862,11.06,83,39,3.13,GB,1710534885
332,mersing,2.4312,103.8405,24.95,88,20,0.51,MY,1710534969
333,pacasmayo,-7.4006,-79.5714,24.75,71,28,6.95,PE,1710534899
334,vila velha,-20.3297,-40.2925,28.97,84,75,4.63,BR,1710534608
335,fortuna,40.5982,-124.1573,23.29,40,0,3.6,US,1710534970
336,malanje,-9.5402,16.341,17.71,98,63,1.16,AO,1710534971
337,cannonvale,-20.2833,148.7,25.66,85,81,8.57,AU,1710534971
338,polyarnyy,69.1989,33.4478,-5.57,91,100,2.24,RU,1710534696
339,kyren,51.6828,102.1408,-6.7,97,97,0.89,RU,1710534972
340,altai,46.3722,96.2583,-10.83,49,66,0.76,MN,1710534973
341,schrobenhausen,48.55,11.2667,10.51,97,75,0.51,DE,1710534973
342,chibougamau,49.9168,-74.3659,-1.21,51,100,3.6,CA,1710534973
343,charters towers,-20.1,146.2667,23.42,87,24,3.11,AU,1710534974
344,pisco,-13.7,-76.2167,28.03,57,0,7.2,PE,1710534899
345,damboa,11.156,12.7576,32.79,10,21,2.63,NG,1710534975
346,wellington,-41.2866,174.7756,12.81,68,20,7.72,NZ,1710534823
347,vadlapudi,14.3167,79.8,24.47,83,0,4.25,IN,1710534975
348,kavieng,-2.5744,150.7967,27.9,79,96,4.67,PG,1710534976
349,vadso,70.0744,29.7487,-9.51,79,20,3.09,NO,1710534976
350,huatabampo,26.8333,-109.6333,23.74,50,19,6.9,MX,1710534749
351,manaure,11.7751,-72.4445,32.22,51,6,7.89,CO,1710534977
352,silifke,36.3778,33.9344,14.2,72,5,2.12,TR,1710534978
353,kalaleh,37.3807,55.4916,14.87,49,79,1.08,IR,1710534978
354,mahina,-17.5065,-149.489,31.87,62,75,3.6,PF,1710534855
355,san gabriel,34.0961,-118.1058,20.77,44,40,2.06,US,1710534912
356,buchanan,5.8808,-10.0467,27.34,88,46,2.95,LR,1710534979
357,evanston,42.0411,-87.6901,14.8,71,20,4.63,US,1710534782
358,kill devil hills,36.0307,-75.676,25.0,54,0,4.63,US,1710534980
359,ballina,-28.8667,153.5667,18.77,59,100,6.44,AU,1710534981
360,sinegorskiy,48.0139,40.8447,2.72,73,100,3.65,RU,1710534981
361,el granada,37.5027,-122.4694,22.73,30,0,9.26,US,1710534875
362,brokopondo,4.75,-55.1667,27.33,83,62,2.68,SR,1710534982
363,coquimbo,-29.9533,-71.3436,18.85,72,0,6.17,CL,1710534762
364,dolinsk,47.35,142.8,-10.16,90,16,2.64,RU,1710534738
365,sinop,41.7711,34.8709,6.68,98,100,1.68,TR,1710534781
366,yunyang,33.4474,112.7142,12.93,71,69,0.45,CN,1710534984
367,ambovombe,-25.1667,46.0833,24.51,94,89,4.77,MG,1710534984
368,aasiaat,68.7098,-52.8699,-19.17,100,82,1.65,GL,1710534984
369,choyr,46.3611,108.3611,-8.71,91,96,7.98,MN,1710534985
370,guadalupe y calvo,26.1,-106.9667,16.27,20,0,7.63,MX,1710534985
371,smirnykh,49.75,142.8333,-12.76,74,2,3.52,RU,1710534986
372,san antonio de pale,-1.4014,5.6325,28.94,71,54,0.29,GQ,1710534986
373,paramaribo,5.8667,-55.1667,29.03,74,40,2.06,SR,1710534738
374,weno,7.4515,151.8468,26.97,89,100,3.6,FM,1710534987
375,magadan,59.5667,150.8,-3.73,75,100,11.3,RU,1710534988
376,kasimov,54.9411,41.3953,-3.86,96,63,3.31,RU,1710534988
377,guerrero negro,27.9769,-114.0611,19.67,43,43,6.26,MX,1710534989
378,bairnsdale,-37.8333,147.6167,9.47,97,0,0.88,AU,1710534989
379,kanbe,16.7053,96.0017,26.03,68,2,1.99,MM,1710534989
380,kampung simpang renggam,1.8278,103.3,26.08,89,100,1.88,MY,1710534990
381,acarau,-2.8856,-40.12,26.1,89,100,6.49,BR,1710534987
382,faya-largeau,17.9257,19.1043,29.21,9,33,0.99,TD,1710534991
383,richards bay,-28.783,32.0377,22.68,80,18,5.81,ZA,1710534991
384,crumlin,54.6243,-6.2156,6.55,87,20,2.57,GB,1710534992
385,velikiye luki,56.34,30.5452,3.71,87,100,3.02,RU,1710534992
386,coalcoman de vazquez pallares,18.7833,-103.15,32.96,17,3,2.69,MX,1710534993
387,jayapura,-2.5333,140.7,24.66,90,99,1.95,ID,1710534993
388,tommot,58.9564,126.2925,-23.02,100,97,0.94,RU,1710534994
389,usogorsk,63.4106,48.6872,-0.74,96,100,5.06,RU,1710534994
390,gamay,12.3854,125.2979,24.39,90,86,3.9,PH,1710534995
391,esmeraldas,-19.7625,-44.3139,33.17,68,13,0.9,BR,1710534995
392,selkirk,50.1436,-96.8845,4.04,83,100,4.02,CA,1710534995
393,vanimo,-2.6741,141.3028,25.48,89,100,2.13,PG,1710534996
394,prince rupert,54.3161,-130.3201,11.05,71,20,5.66,CA,1710534803
395,beira,-19.8436,34.8389,23.05,88,75,3.6,MZ,1710534997
396,zhalantun,48.0,122.7167,-2.92,49,100,1.86,CN,1710534997
397,moengo,5.6167,-54.4,28.61,69,67,3.26,SR,1710534998
398,lakhipur,26.0299,90.3041,20.02,38,0,1.68,IN,1710534998
399,qashyr,53.0675,76.1036,-11.77,96,76,4.13,KZ,1710534999
400,yemva,62.59,50.8594,1.15,99,100,4.35,RU,1710534999
401,port alberni,49.2413,-124.8028,12.84,54,91,1.71,CA,1710534930
402,peniche,39.3558,-9.3811,16.83,97,89,3.94,PT,1710535000
403,poltavka,54.3663,71.7632,-4.27,91,99,7.12,RU,1710535000
404,ambalavao,-21.8333,46.9333,19.6,97,95,1.62,MG,1710535001
405,howrah,22.5892,88.3103,23.0,94,40,1.54,IN,1710535001
406,mindelo,16.8901,-24.9804,22.75,68,20,10.29,CV,1710535001
407,ouallam,14.3188,2.0866,30.19,7,31,4.41,NE,1710535002
408,badger,64.8,-147.5333,-12.7,74,75,0.0,US,1710534832
409,crane,31.3974,-102.3501,14.19,60,100,7.16,US,1710535003
410,comiso,36.9513,14.6102,8.1,93,55,1.54,IT,1710535003
411,sarupathar,26.1984,93.8094,18.41,51,14,0.64,IN,1710535003
412,prado,-17.3411,-39.2208,26.59,85,10,2.95,BR,1710534920
413,tchintabaraden,15.8969,5.7985,26.71,8,1,4.27,NE,1710535004
414,qarazhal,48.0078,70.7903,-10.8,96,83,2.51,KZ,1710535005
415,nyrob,60.733,56.7202,0.83,98,100,4.87,RU,1710535005
416,malabar,-33.9667,151.25,20.63,72,40,5.66,AU,1710535005
417,nizhnyaya tavda,57.6731,66.1725,0.32,80,100,6.5,RU,1710535006
418,i-n-salah,27.1935,2.4607,21.87,17,0,5.59,DZ,1710535006
419,isangel,-19.55,169.2667,26.06,100,100,0.0,VU,1710535006
420,mandera,3.9366,41.867,30.83,25,0,3.9,KE,1710535007
421,hami,42.8,93.45,3.36,35,91,3.57,CN,1710535007
422,yuzhno-kurilsk,44.0306,145.8556,-2.57,92,4,8.18,RU,1710534750
423,nago,26.5881,127.9761,21.47,75,67,3.95,JP,1710535008
424,juan griego,11.0817,-63.9655,27.38,75,55,8.44,VE,1710535009
425,arkhangel'sk,64.5401,40.5433,3.06,100,100,4.0,RU,1710535009
426,chai badan,15.2,101.1333,30.07,73,99,3.14,TH,1710535010
427,puerto deseado,-47.7503,-65.8938,15.75,41,95,3.99,AR,1710535010
428,itaituba,-4.2761,-55.9836,33.09,66,75,2.57,BR,1710534830
429,mogadishu,2.0371,45.3438,27.76,77,18,8.51,SO,1710535011
430,luderitz,-26.6481,15.1594,16.91,79,0,5.84,NA,1710535011
431,santa terezinha,-29.9002,-50.0904,25.14,82,100,1.84,BR,1710535013
432,siuna,13.7332,-84.7773,30.45,50,100,1.57,NI,1710534485
433,anna regina,7.2644,-58.5077,28.11,72,18,4.47,GY,1710535013
434,inirida,3.8653,-67.9239,28.65,73,97,0.99,CO,1710535014
435,afif,23.9065,42.9172,23.97,42,100,5.3,SA,1710535014
436,fada,9.5667,8.3,27.14,46,75,0.28,NG,1710535015
437,muscat,23.6139,58.5922,23.01,53,16,2.95,OM,1710534864
438,dryden,49.7833,-92.7503,2.16,69,100,7.2,CA,1710535015
439,figuig (centre),32.1089,-1.2286,18.95,23,7,1.92,MA,1710535016
440,uludere,37.445,42.8617,4.57,87,71,1.35,TR,1710535016
441,larroque,-33.036,-59.0013,24.28,91,86,2.32,AR,1710535017
442,island harbour,50.724,-1.2758,11.29,92,90,2.24,GB,1710535017
443,mazagao,-0.115,-51.2894,25.03,97,100,2.49,BR,1710535017
444,garachico,28.7781,-17.7646,17.49,77,20,2.06,ES,1710535018
445,hasaki,35.7333,140.8333,12.22,46,0,6.1,JP,1710535019
446,tugulym,57.0591,64.6425,1.04,76,100,6.84,RU,1710535019
447,havarna,48.0667,26.65,5.13,91,87,2.46,RO,1710535019
448,itoman,26.1247,127.6694,21.43,70,75,3.09,JP,1710535020
449,saynshand,44.8824,110.1163,-4.12,71,41,10.34,MN,1710535020
450,sihanoukville,10.6093,103.5296,25.97,83,40,1.03,KH,1710535021
451,petropavlovsk-kamchatsky,53.0452,158.6483,-1.67,86,100,22.35,RU,1710534745
452,mont-laurier,46.5501,-75.4993,8.79,99,100,1.96,CA,1710535022
453,angra do heroismo,38.65,-27.2167,17.34,84,20,7.15,PT,1710535022
454,ayr,55.4627,-4.6339,5.94,87,20,2.06,GB,1710535022
455,la foa,-21.7108,165.8276,25.93,87,98,2.25,NC,1710535023
456,okhotsk,59.3833,143.3,-10.57,94,100,8.5,RU,1710534741
457,andergrove,-21.0833,149.1833,25.36,80,93,8.61,AU,1710535024
458,nueva gerona,21.8833,-82.8,28.16,68,32,6.6,CU,1710535025
459,nanhyanga,-10.8,39.55,22.0,99,99,0.93,TZ,1710535025
460,nantucket,41.2835,-70.0995,9.06,82,75,9.77,US,1710534926
461,embrun,44.5639,6.4953,7.69,90,20,1.18,FR,1710535026
462,silvi,42.5456,14.122,13.38,88,100,2.24,IT,1710535026
463,pandan,14.0453,124.1694,25.34,82,71,5.0,PH,1710535026
464,smithers,54.7804,-127.1743,7.18,70,75,1.03,CA,1710534910
465,ingeniero guillermo n. juarez,-23.9,-61.85,41.45,24,100,6.97,AR,1710535027
466,esil,51.9556,66.4042,-10.21,95,75,4.08,KZ,1710535028
467,mount pearl,47.5166,-52.7813,1.29,81,100,2.06,CA,1710534900
468,nevada,39.2502,-116.7512,3.91,41,100,7.25,US,1710534793
469,bealanana,-14.55,48.7333,18.69,99,95,1.43,MG,1710535029
470,kurumkan,54.3,110.3,-13.82,91,55,1.79,RU,1710535029
471,jerico,5.7921,-75.786,27.73,50,100,1.34,CO,1710535030
472,manakara,-22.1333,48.0167,24.61,91,57,1.42,MG,1710535030
473,hadibu,12.65,54.0333,25.16,75,4,3.29,YE,1710535031
474,taoudenni,22.6783,-3.9836,26.08,7,0,4.99,ML,1710535031
475,qoryooley,1.7878,44.53,26.85,74,8,5.05,SO,1710535031
476,lilongwe,-13.9669,33.7873,19.31,95,100,0.88,MW,1710534842
477,trinidad,-14.8333,-64.9,33.99,59,75,4.12,BO,1710534866
478,general acha,-37.377,-64.6043,27.17,27,0,4.97,AR,1710535033
479,argo,37.6333,22.7333,12.1,82,45,1.11,GR,1710534761
480,mpika,-11.8343,31.4529,17.74,97,48,2.3,ZM,1710535033
481,labuan,5.2767,115.2417,26.2,94,20,0.0,MY,1710535034
482,emerald,-23.5333,148.1667,20.19,86,1,3.27,AU,1710535034
483,harper,4.375,-7.7169,28.1,84,95,2.47,LR,1710535035
484,hopelchen,19.7667,-89.85,37.35,23,97,3.32,MX,1710535035
485,ouesso,1.6136,16.0517,24.95,80,68,1.09,CG,1710535036
486,pacific grove,36.6177,-121.9166,22.72,39,0,4.12,US,1710535036
487,codrington,-38.2667,141.9667,15.09,75,41,3.94,AU,1710535037
488,skovorodino,53.9833,123.9167,-20.6,97,9,1.02,RU,1710534742
489,puerto lempira,15.2667,-83.7667,32.08,66,75,4.12,HN,1710535037
490,muynoq,43.7683,59.0214,3.68,39,12,7.93,UZ,1710535038
491,guardo,42.7897,-4.8482,7.03,79,46,0.85,ES,1710535038
492,merizo village,13.2658,144.6691,26.31,88,97,7.17,GU,1710535039
493,bochil,16.9833,-92.9167,30.98,26,79,1.63,MX,1710534848
494,mumford,5.2618,-0.759,27.31,85,88,2.2,GH,1710535039
495,k'olito,7.3167,38.0833,19.32,45,5,2.08,ET,1710535040
496,pokhara,28.2333,83.9833,15.33,26,35,2.88,NP,1710534965
497,arraial do cabo,-22.9661,-42.0278,28.98,78,0,5.66,BR,1710534933
498,ormara,25.2088,64.6357,22.59,64,6,3.31,PK,1710535042
499,buka,40.8108,69.1986,2.47,60,0,1.73,UZ,1710535043
500,kanggye,40.9695,126.5852,-0.37,84,25,1.96,KP,1710535043
501,nushki,29.5542,66.0215,14.55,40,96,0.82,PK,1710534791
502,tarko-sale,64.9225,77.785,-8.77,94,100,11.48,RU,1710535044
503,xudat,41.631,48.681,6.35,93,100,2.44,AZ,1710535044
504,querendaro,19.8667,-100.9167,29.02,13,75,7.2,MX,1710535045
505,ugoofaaru,5.6667,73.0,28.7,63,75,3.06,MV,1710535045
506,erbaa,40.6689,36.5675,9.88,84,97,1.4,TR,1710535046
507,ponoka,52.6768,-113.5815,4.55,92,99,2.28,CA,1710534753
508,nova olimpia,-14.7972,-57.2881,31.93,60,100,1.59,BR,1710535047
509,fort st. john,56.2499,-120.8529,7.94,57,75,2.06,CA,1710535047
510,warmbad,-28.45,18.7333,25.1,25,33,4.11,NA,1710535048
511,bilhaur,26.85,80.0833,18.44,20,1,3.13,IN,1710535048
512,al hasakah,36.5024,40.7477,12.9,63,0,3.23,SY,1710535048
513,hulan ergi,47.2042,123.6333,-1.84,54,100,2.9,CN,1710535049
514,gbarnga,6.9956,-9.4722,25.92,83,46,1.76,LR,1710535051
515,pierre,44.3683,-100.351,15.48,26,0,5.66,US,1710535051
516,buncrana,55.1333,-7.45,6.87,87,19,1.47,IE,1710535052
517,grand baie,-20.0182,57.5802,26.92,83,9,2.24,MU,1710535052
518,najran,17.4924,44.1277,27.36,27,74,1.18,SA,1710535053
519,minas de marcona,-15.2119,-75.1103,21.32,71,63,6.82,PE,1710535053
520,saint-pierre,-21.3393,55.4781,24.82,78,20,2.06,RE,1710535054
521,san matias,-16.3667,-58.4,36.74,36,74,3.06,BO,1710535054
522,vyerkhnyadzvinsk,55.7815,27.9443,4.08,85,100,3.18,BY,1710535055
523,saint-philippe,-21.3585,55.7679,24.77,80,47,4.48,RE,1710535055
524,nyurba,63.2842,118.3319,-27.98,100,98,1.66,RU,1710534801
525,bartica,6.4,-58.6167,29.8,62,82,3.41,GY,1710534855
526,bikenibeu village,1.3673,173.1241,28.98,84,40,4.63,KI,1710535056
527,colac,-38.3333,143.5833,14.35,94,9,2.74,AU,1710535057
528,humberto de campos,-2.5983,-43.4611,26.03,90,99,3.17,BR,1710534772
529,tionk essil,12.7856,-16.5217,30.03,51,0,2.91,SN,1710535057
530,pran buri,12.3847,99.9098,24.78,79,67,3.05,TH,1710535058
531,vila do maio,15.1333,-23.2167,24.44,79,0,5.99,CV,1710535058
532,tughyl,47.7252,84.2063,-10.28,87,98,0.93,KZ,1710535059
533,zhezqazghan,47.7833,67.7667,-13.7,97,45,1.71,KZ,1710535059
534,arteche,12.2645,125.4048,24.71,88,98,4.66,PH,1710535059
535,heroica caborca,30.7167,-112.15,17.51,45,81,10.13,MX,1710534848
536,santiago de cao,-7.9589,-79.2392,24.07,78,20,4.12,PE,1710535060
537,portland,45.5234,-122.6762,21.62,35,20,7.2,US,1710534781
538,cusseta,32.3054,-84.7727,18.56,86,95,3.55,US,1710534952
539,bestobe,52.4994,73.0975,-7.92,91,62,5.59,KZ,1710535061
540,alasehir,38.3508,28.5172,9.24,85,31,1.29,TR,1710535062
541,khandyga,62.6667,135.6,-26.15,100,100,0.83,RU,1710535062
542,morehead city,34.7229,-76.726,27.01,77,0,6.69,US,1710534923
543,ghanzi,-21.5667,21.7833,28.36,34,56,5.06,BW,1710535063
544,bhaisa,19.1,77.9667,27.68,26,12,1.37,IN,1710535063
545,martapura,-3.4167,114.85,24.05,100,40,1.03,ID,1710535064
546,bowen,-20.0167,148.2333,25.51,82,57,5.5,AU,1710535064
547,kaka,37.3482,59.6143,11.06,58,96,3.54,TM,1710535064
548,beruniy,41.6911,60.7525,2.98,70,0,6.17,UZ,1710535065
549,mpanda,-6.3655,31.0409,19.15,96,72,0.77,TZ,1710535065
550,foso,5.7012,-1.2866,26.56,78,59,1.57,GH,1710535066
551,manado,1.487,124.8455,24.43,100,40,0.51,ID,1710535066
552,atar,20.5169,-13.0499,29.24,10,0,3.54,MR,1710535067
553,sangmelima,2.9333,11.9833,23.93,68,99,1.26,CM,1710535067
554,murzuq,25.9155,13.9184,18.22,28,0,6.97,LY,1710535067
555,kavaratti,10.5669,72.642,27.55,73,1,3.88,IN,1710534785
556,jeju city,33.5097,126.5219,7.96,53,0,2.06,KR,1710535069
557,les cayes,18.2,-73.75,28.24,66,8,5.05,HT,1710534861
558,san pascual,13.7975,121.0342,22.97,88,100,3.62,PH,1710535069
559,saint-mandrier-sur-mer,43.078,5.929,15.99,83,0,3.13,FR,1710535070
560,kirakira,-10.4544,161.9205,26.71,92,100,3.52,SB,1710534784
561,al jawf,29.5,38.75,15.28,40,1,5.95,SA,1710535071
562,bundi,25.4417,75.6417,19.4,26,5,2.75,IN,1710535071
563,okha,53.5739,142.9478,-13.87,77,82,9.6,RU,1710535072
564,saltburn-by-the-sea,54.5824,-0.9737,6.9,92,100,5.81,GB,1710535072
565,ihosy,-22.4,46.1167,21.14,97,96,3.1,MG,1710535072
566,salekhard,66.53,66.6019,-5.71,97,100,4.44,RU,1710535073
567,mitchell,43.7094,-98.0298,12.08,35,0,4.12,US,1710535073
568,pekalongan,-6.8886,109.6753,26.18,88,100,2.9,ID,1710535074
569,tirumullaivasal,11.2333,79.8333,25.21,84,8,3.6,IN,1710535074
570,tayaman,13.2295,120.5726,24.89,78,100,3.19,PH,1710535074
571,naze,28.3667,129.4833,12.51,61,41,1.66,JP,1710535075
572,obo,5.3998,26.4869,25.81,60,77,1.65,CF,1710535075
573,fenyi,27.8112,114.6681,13.74,98,99,0.28,CN,1710535075
